[
  {
    "category": "hotels",
    "name": "The Alexander",
    "type": "hotel",
    "cuisine": "",
    "address": "",
    "postcode": "",
    "town": "",
    "latitude": 53.7835296,
    "longitude": -2.2304307,
    "phone": "",
    "website": "",
    "opening_hours": "",
    "stars": "",
    "wheelchair": "",
    "osm_id": 29878508,
    "osm_type": "node",
    "scraped_at": "2026-03-06T09:49:27.817260"
  },
  {
    "category": "hotels",
    "name": "Millstone Hotel",
    "type": "hotel",
    "cuisine": "",
    "address": "",
    "postcode": "",
    "town": "",
    "latitude": 53.7735867,
    "longitude": -2.5309161,
    "phone": "",
    "website": "",
    "opening_hours": "",
    "stars": "",
    "wheelchair": "",
    "osm_id": 309632169,
    "osm_type": "node",
    "scraped_at": "2026-03-06T09:49:27.817279"
  },
  {
    "category": "hotels",
    "name": "Last Drop Village",
    "type": "hotel",
    "cuisine": "",
    "address": "Bolton, BL7 9PZ",
    "postcode": "BL7 9PZ",
    "town": "Bolton",
    "latitude": 53.62219,
    "longitude": -2.4210425,
    "phone": "+44 1204 591131",
    "website": "",
    "opening_hours": "",
    "stars": "",
    "wheelchair": "",
    "osm_id": 361426756,
    "osm_type": "node",
    "scraped_at": "2026-03-06T09:49:27.817284"
  },
  {
    "category": "hotels",
    "name": "Barton Grange Hotel",
    "type": "hotel",
    "cuisine": "",
    "address": "746-768, Garstang Road, Preston, PR3 5AA",
    "postcode": "PR3 5AA",
    "town": "Preston",
    "latitude": 53.8304868,
    "longitude": -2.7367936,
    "phone": "",
    "website": "",
    "opening_hours": "",
    "stars": "",
    "wheelchair": "",
    "osm_id": 390544212,
    "osm_type": "node",
    "scraped_at": "2026-03-06T09:49:27.817287"
  },
  {
    "category": "hotels",
    "name": "Whitburn House Hotel",
    "type": "hotel",
    "cuisine": "",
    "address": "111, Garstang Road, Preston, PR2 3EB",
    "postcode": "PR2 3EB",
    "town": "Preston",
    "latitude": 53.7752384,
    "longitude": -2.7083483,
    "phone": "",
    "website": "",
    "opening_hours": "",
    "stars": "",
    "wheelchair": "",
    "osm_id": 390544216,
    "osm_type": "node",
    "scraped_at": "2026-03-06T09:49:27.817289"
  },
  {
    "category": "hotels",
    "name": "Royal Oak Hotel",
    "type": "pub",
    "cuisine": "",
    "address": "",
    "postcode": "",
    "town": "",
    "latitude": 53.8999658,
    "longitude": -2.7745392,
    "phone": "+44 1995 603318",
    "website": "https://www.royaloakgarstang.co.uk/",
    "opening_hours": "11:00-23:00",
    "stars": "",
    "wheelchair": "yes",
    "osm_id": 448573853,
    "osm_type": "node",
    "scraped_at": "2026-03-06T09:49:27.817292"
  },
  {
    "category": "hotels",
    "name": "Eagle and Child",
    "type": "pub",
    "cuisine": "",
    "address": "3, High Street, PR3 1EA",
    "postcode": "PR3 1EA",
    "town": "",
    "latitude": 53.9007836,
    "longitude": -2.7743212,
    "phone": "+44 1995 601524",
    "website": "",
    "opening_hours": "Su-Th 12:00-23:00, Fr,Sa 12:00-24:00",
    "stars": "",
    "wheelchair": "",
    "osm_id": 448647493,
    "osm_type": "node",
    "scraped_at": "2026-03-06T09:49:27.817295"
  },
  {
    "category": "hotels",
    "name": "The Villa Express",
    "type": "hotel",
    "cuisine": "",
    "address": "",
    "postcode": "",
    "town": "",
    "latitude": 53.8055734,
    "longitude": -2.890174,
    "phone": "",
    "website": "",
    "opening_hours": "",
    "stars": "",
    "wheelchair": "",
    "osm_id": 559767085,
    "osm_type": "node",
    "scraped_at": "2026-03-06T09:49:27.817297"
  },
  {
    "category": "hotels",
    "name": "Travelodge Preston Chorley",
    "type": "hotel",
    "cuisine": "",
    "address": "",
    "postcode": "",
    "town": "",
    "latitude": 53.7015753,
    "longitude": -2.6385239,
    "phone": "",
    "website": "https://www.travelodge.co.uk/hotels/170/Preston-Chorley-hotel",
    "opening_hours": "",
    "stars": "",
    "wheelchair": "",
    "osm_id": 583219304,
    "osm_type": "node",
    "scraped_at": "2026-03-06T09:49:27.817303"
  },
  {
    "category": "hotels",
    "name": "Shaw Hill",
    "type": "hotel",
    "cuisine": "",
    "address": "Shaw Hill, Chorley, PR6 7PP",
    "postcode": "PR6 7PP",
    "town": "Chorley",
    "latitude": 53.6827034,
    "longitude": -2.6417714,
    "phone": "",
    "website": "",
    "opening_hours": "",
    "stars": "",
    "wheelchair": "",
    "osm_id": 592077909,
    "osm_type": "node",
    "scraped_at": "2026-03-06T09:49:27.817305"
  },
  {
    "category": "hotels",
    "name": "Mytton Fold Hotel",
    "type": "hotel",
    "cuisine": "",
    "address": "",
    "postcode": "",
    "town": "",
    "latitude": 53.8083678,
    "longitude": -2.43982,
    "phone": "",
    "website": "",
    "opening_hours": "",
    "stars": "",
    "wheelchair": "",
    "osm_id": 654023153,
    "osm_type": "node",
    "scraped_at": "2026-03-06T09:49:27.817307"
  },
  {
    "category": "hotels",
    "name": "The Fox Field",
    "type": "hotel",
    "cuisine": "",
    "address": "",
    "postcode": "",
    "town": "",
    "latitude": 53.8108384,
    "longitude": -2.4322026,
    "phone": "",
    "website": "",
    "opening_hours": "",
    "stars": "",
    "wheelchair": "",
    "osm_id": 654023434,
    "osm_type": "node",
    "scraped_at": "2026-03-06T09:49:27.817309"
  },
  {
    "category": "hotels",
    "name": "Sparth House",
    "type": "hotel",
    "cuisine": "",
    "address": "Whalley Road, Accrington, BB5 5RP",
    "postcode": "BB5 5RP",
    "town": "Accrington",
    "latitude": 53.7793075,
    "longitude": -2.3849344,
    "phone": "",
    "website": "",
    "opening_hours": "",
    "stars": "",
    "wheelchair": "",
    "osm_id": 660292481,
    "osm_type": "node",
    "scraped_at": "2026-03-06T09:49:27.817311"
  },
  {
    "category": "hotels",
    "name": "Mitton Hall",
    "type": "hotel",
    "cuisine": "",
    "address": "",
    "postcode": "",
    "town": "",
    "latitude": 53.8420321,
    "longitude": -2.4318248,
    "phone": "",
    "website": "",
    "opening_hours": "",
    "stars": "",
    "wheelchair": "",
    "osm_id": 661056375,
    "osm_type": "node",
    "scraped_at": "2026-03-06T09:49:27.817312"
  },
  {
    "category": "hotels",
    "name": "Holiday Inn",
    "type": "hotel",
    "cuisine": "",
    "address": "Ring Way, Preston, PR1 3AU",
    "postcode": "PR1 3AU",
    "town": "Preston",
    "latitude": 53.7623981,
    "longitude": -2.6969748,
    "phone": "",
    "website": "",
    "opening_hours": "",
    "stars": "",
    "wheelchair": "",
    "osm_id": 663170041,
    "osm_type": "node",
    "scraped_at": "2026-03-06T09:49:27.817314"
  },
  {
    "category": "hotels",
    "name": "Travelodge",
    "type": "hotel",
    "cuisine": "",
    "address": "ExtraMSA Blackburn with Darwen Services, Darwen, BB3 0DB",
    "postcode": "BB3 0DB",
    "town": "Darwen",
    "latitude": 53.7127451,
    "longitude": -2.477142,
    "phone": "",
    "website": "https://www.travelodge.co.uk/hotels/114/Blackburn-M65-hotel",
    "opening_hours": "",
    "stars": "",
    "wheelchair": "",
    "osm_id": 766573379,
    "osm_type": "node",
    "scraped_at": "2026-03-06T09:49:27.817316"
  },
  {
    "category": "hotels",
    "name": "Holiday Inn Express Burnley",
    "type": "hotel",
    "cuisine": "",
    "address": "",
    "postcode": "",
    "town": "",
    "latitude": 53.7938815,
    "longitude": -2.2563814,
    "phone": "+44 1282 855 955",
    "website": "https://www.hiexburnley.com/",
    "opening_hours": "",
    "stars": "",
    "wheelchair": "",
    "osm_id": 773641254,
    "osm_type": "node",
    "scraped_at": "2026-03-06T09:49:27.817493"
  },
  {
    "category": "hotels",
    "name": "Strathmore Hotel",
    "type": "hotel",
    "cuisine": "",
    "address": "Marine Road East, Morecambe, LA4 5AP",
    "postcode": "LA4 5AP",
    "town": "Morecambe",
    "latitude": 54.0767054,
    "longitude": -2.8496227,
    "phone": "",
    "website": "https://www.thestrathmore.co.uk/",
    "opening_hours": "",
    "stars": "",
    "wheelchair": "",
    "osm_id": 1108903757,
    "osm_type": "node",
    "scraped_at": "2026-03-06T09:49:27.817500"
  },
  {
    "category": "hotels",
    "name": "Bay Roomz",
    "type": "hotel",
    "cuisine": "",
    "address": "400, Marine Road East, Morecambe, LA4 5AW",
    "postcode": "LA4 5AW",
    "town": "Morecambe",
    "latitude": 54.0768246,
    "longitude": -2.8522402,
    "phone": "",
    "website": "",
    "opening_hours": "",
    "stars": "",
    "wheelchair": "",
    "osm_id": 1116465209,
    "osm_type": "node",
    "scraped_at": "2026-03-06T09:49:27.817508"
  },
  {
    "category": "hotels",
    "name": "The Shakespeare Bed and Breakfast",
    "type": "guest_house",
    "cuisine": "",
    "address": "96, St Leonard's Gate, Lancaster, LA1 1NN",
    "postcode": "LA1 1NN",
    "town": "Lancaster",
    "latitude": 54.0501169,
    "longitude": -2.7973904,
    "phone": "",
    "website": "",
    "opening_hours": "",
    "stars": "",
    "wheelchair": "",
    "osm_id": 1326945854,
    "osm_type": "node",
    "scraped_at": "2026-03-06T09:49:27.817510"
  },
  {
    "category": "hotels",
    "name": "Ormerod",
    "type": "guest_house",
    "cuisine": "",
    "address": "",
    "postcode": "",
    "town": "",
    "latitude": 53.794089,
    "longitude": -2.2332877,
    "phone": "",
    "website": "",
    "opening_hours": "",
    "stars": "",
    "wheelchair": "",
    "osm_id": 1371242127,
    "osm_type": "node",
    "scraped_at": "2026-03-06T09:49:27.817512"
  },
  {
    "category": "hotels",
    "name": "Bolholt Hotel",
    "type": "hotel",
    "cuisine": "",
    "address": "Walshaw Road, Bury, BL8 1PU",
    "postcode": "BL8 1PU",
    "town": "Bury",
    "latitude": 53.6020104,
    "longitude": -2.3262072,
    "phone": "",
    "website": "",
    "opening_hours": "",
    "stars": "",
    "wheelchair": "",
    "osm_id": 1834280711,
    "osm_type": "node",
    "scraped_at": "2026-03-06T09:49:27.817514"
  },
  {
    "category": "hotels",
    "name": "Stanley Lodge Farmhouse",
    "type": "guest_house",
    "cuisine": "",
    "address": "Cockerham Road, LA2 0HE",
    "postcode": "LA2 0HE",
    "town": "",
    "latitude": 53.9612114,
    "longitude": -2.7890138,
    "phone": "+44 1524 793296",
    "website": "https://www.stanleylodgefarmhouse.co.uk/",
    "opening_hours": "",
    "stars": "",
    "wheelchair": "",
    "osm_id": 1960598591,
    "osm_type": "node",
    "scraped_at": "2026-03-06T09:49:27.817516"
  },
  {
    "category": "hotels",
    "name": "Patty's Barn Farm",
    "type": "guest_house",
    "cuisine": "",
    "address": "",
    "postcode": "",
    "town": "",
    "latitude": 53.962971,
    "longitude": -2.8368793,
    "phone": "",
    "website": "https://www.pattysbarn.co.uk/",
    "opening_hours": "",
    "stars": "",
    "wheelchair": "",
    "osm_id": 2008162522,
    "osm_type": "node",
    "scraped_at": "2026-03-06T09:49:27.817518"
  },
  {
    "category": "hotels",
    "name": "Broadfield Park Hotel",
    "type": "hotel",
    "cuisine": "",
    "address": "Sparrow Hill, Rochdale, OL16 1AF",
    "postcode": "OL16 1AF",
    "town": "Rochdale",
    "latitude": 53.614367,
    "longitude": -2.1612573,
    "phone": "+44 1706 639 000",
    "website": "https://www.broadfieldparkhotel.co.uk/",
    "opening_hours": "",
    "stars": "4",
    "wheelchair": "",
    "osm_id": 2012929896,
    "osm_type": "node",
    "scraped_at": "2026-03-06T09:49:27.817521"
  },
  {
    "category": "hotels",
    "name": "Height Top Farm",
    "type": "guest_house",
    "cuisine": "",
    "address": "",
    "postcode": "",
    "town": "",
    "latitude": 53.832386,
    "longitude": -2.2879754,
    "phone": "",
    "website": "",
    "opening_hours": "",
    "stars": "",
    "wheelchair": "",
    "osm_id": 2080130458,
    "osm_type": "node",
    "scraped_at": "2026-03-06T09:49:27.817523"
  },
  {
    "category": "hotels",
    "name": "The Old Mill",
    "type": "hotel",
    "cuisine": "",
    "address": "Springwood Street, Bury, BL0 9DS",
    "postcode": "BL0 9DS",
    "town": "Bury",
    "latitude": 53.6503296,
    "longitude": -2.3229537,
    "phone": "",
    "website": "",
    "opening_hours": "",
    "stars": "",
    "wheelchair": "",
    "osm_id": 2328411530,
    "osm_type": "node",
    "scraped_at": "2026-03-06T09:49:27.817525"
  },
  {
    "category": "hotels",
    "name": "Earby Friends of Nature House",
    "type": "hostel",
    "cuisine": "",
    "address": "9-11, Birch Hall Lane, Barnoldswick, BB18 6JX",
    "postcode": "BB18 6JX",
    "town": "Barnoldswick",
    "latitude": 53.9180928,
    "longitude": -2.1306495,
    "phone": "+44 1282 842349",
    "website": "https://independenthostels.co.uk/members/earbyfriendsofnaturehouse/",
    "opening_hours": "",
    "stars": "",
    "wheelchair": "",
    "osm_id": 3316549000,
    "osm_type": "node",
    "scraped_at": "2026-03-06T09:49:27.817527"
  },
  {
    "category": "hotels",
    "name": "Village Square B&B",
    "type": "guest_house",
    "cuisine": "",
    "address": "",
    "postcode": "",
    "town": "",
    "latitude": 54.0186714,
    "longitude": -2.2543405,
    "phone": "",
    "website": "",
    "opening_hours": "",
    "stars": "",
    "wheelchair": "",
    "osm_id": 3840799326,
    "osm_type": "node",
    "scraped_at": "2026-03-06T09:49:27.817531"
  },
  {
    "category": "hotels",
    "name": "Lancaster Town House",
    "type": "guest_house",
    "cuisine": "",
    "address": "Caton Road, Lancaster, LA1 3PB",
    "postcode": "LA1 3PB",
    "town": "Lancaster",
    "latitude": 54.0627641,
    "longitude": -2.7879615,
    "phone": "",
    "website": "",
    "opening_hours": "",
    "stars": "",
    "wheelchair": "",
    "osm_id": 3893434485,
    "osm_type": "node",
    "scraped_at": "2026-03-06T09:49:27.817533"
  },
  {
    "category": "hotels",
    "name": "Unnamed",
    "type": "guest_house",
    "cuisine": "",
    "address": "450, Marine Road East, Morecambe",
    "postcode": "",
    "town": "Morecambe",
    "latitude": 54.0781034,
    "longitude": -2.8429192,
    "phone": "",
    "website": "",
    "opening_hours": "",
    "stars": "",
    "wheelchair": "",
    "osm_id": 3956712868,
    "osm_type": "node",
    "scraped_at": "2026-03-06T09:49:27.817535"
  },
  {
    "category": "hotels",
    "name": "The Channings",
    "type": "hotel",
    "cuisine": "",
    "address": "455, Marine Road East, Morecambe, LA4 6AD",
    "postcode": "LA4 6AD",
    "town": "Morecambe",
    "latitude": 54.0782872,
    "longitude": -2.8421447,
    "phone": "+44 1524 417925",
    "website": "",
    "opening_hours": "",
    "stars": "",
    "wheelchair": "",
    "osm_id": 3957924862,
    "osm_type": "node",
    "scraped_at": "2026-03-06T09:49:27.817538"
  },
  {
    "category": "hotels",
    "name": "The Craggs",
    "type": "hotel",
    "cuisine": "",
    "address": "Marine Road East, Morecambe",
    "postcode": "",
    "town": "Morecambe",
    "latitude": 54.0783349,
    "longitude": -2.8419618,
    "phone": "",
    "website": "",
    "opening_hours": "",
    "stars": "",
    "wheelchair": "",
    "osm_id": 3957924863,
    "osm_type": "node",
    "scraped_at": "2026-03-06T09:49:27.817539"
  },
  {
    "category": "hotels",
    "name": "St. Winifred's Hotel",
    "type": "hotel",
    "cuisine": "",
    "address": "Marine Road East, Morecambe, LA4 5AR",
    "postcode": "LA4 5AR",
    "town": "Morecambe",
    "latitude": 54.0767026,
    "longitude": -2.8500383,
    "phone": "",
    "website": "",
    "opening_hours": "",
    "stars": "",
    "wheelchair": "",
    "osm_id": 3957983357,
    "osm_type": "node",
    "scraped_at": "2026-03-06T09:49:27.817543"
  },
  {
    "category": "hotels",
    "name": "The Beach Mount",
    "type": "guest_house",
    "cuisine": "",
    "address": "395, Marine Road East, Morecambe, LA4 5AN",
    "postcode": "LA4 5AN",
    "town": "Morecambe",
    "latitude": 54.0769719,
    "longitude": -2.8532337,
    "phone": "",
    "website": "",
    "opening_hours": "",
    "stars": "",
    "wheelchair": "",
    "osm_id": 3958047112,
    "osm_type": "node",
    "scraped_at": "2026-03-06T09:49:27.817545"
  },
  {
    "category": "hotels",
    "name": "Craigwell Guest House",
    "type": "guest_house",
    "cuisine": "",
    "address": "Marine Road East, Morecambe",
    "postcode": "",
    "town": "Morecambe",
    "latitude": 54.0771657,
    "longitude": -2.8566367,
    "phone": "",
    "website": "",
    "opening_hours": "",
    "stars": "",
    "wheelchair": "",
    "osm_id": 3958221735,
    "osm_type": "node",
    "scraped_at": "2026-03-06T09:49:27.817547"
  },
  {
    "category": "hotels",
    "name": "The Ashley",
    "type": "guest_house",
    "cuisine": "",
    "address": "Marine Road East, Morecambe",
    "postcode": "",
    "town": "Morecambe",
    "latitude": 54.0771423,
    "longitude": -2.8567841,
    "phone": "",
    "website": "",
    "opening_hours": "",
    "stars": "",
    "wheelchair": "",
    "osm_id": 3958221741,
    "osm_type": "node",
    "scraped_at": "2026-03-06T09:49:27.817549"
  },
  {
    "category": "hotels",
    "name": "The Shipping Lanes Hotel",
    "type": "hotel",
    "cuisine": "",
    "address": "363, Marine Road East, Morecambe, LA4 5AQ",
    "postcode": "LA4 5AQ",
    "town": "Morecambe",
    "latitude": 54.0769158,
    "longitude": -2.8576049,
    "phone": "",
    "website": "",
    "opening_hours": "",
    "stars": "",
    "wheelchair": "",
    "osm_id": 3958234520,
    "osm_type": "node",
    "scraped_at": "2026-03-06T09:49:27.817551"
  },
  {
    "category": "hotels",
    "name": "Yacht Bay View",
    "type": "guest_house",
    "cuisine": "",
    "address": "359, Marine Road East, Morecambe, LA4 5AQ",
    "postcode": "LA4 5AQ",
    "town": "Morecambe",
    "latitude": 54.0768261,
    "longitude": -2.8579429,
    "phone": "",
    "website": "",
    "opening_hours": "",
    "stars": "",
    "wheelchair": "",
    "osm_id": 3958234523,
    "osm_type": "node",
    "scraped_at": "2026-03-06T09:49:27.817553"
  },
  {
    "category": "hotels",
    "name": "Broadwater",
    "type": "guest_house",
    "cuisine": "",
    "address": "356, Marine Road East, Morecambe, LA4 5AQ",
    "postcode": "LA4 5AQ",
    "town": "Morecambe",
    "latitude": 54.0767257,
    "longitude": -2.8583524,
    "phone": "",
    "website": "",
    "opening_hours": "",
    "stars": "",
    "wheelchair": "",
    "osm_id": 3958234524,
    "osm_type": "node",
    "scraped_at": "2026-03-06T09:49:27.817554"
  },
  {
    "category": "hotels",
    "name": "The Morecambe Bay Hotel",
    "type": "hotel",
    "cuisine": "",
    "address": "317-318, Marine Road Central, Morecambe, LA4 5AA",
    "postcode": "LA4 5AA",
    "town": "Morecambe",
    "latitude": 54.0747485,
    "longitude": -2.862921,
    "phone": "",
    "website": "",
    "opening_hours": "",
    "stars": "",
    "wheelchair": "",
    "osm_id": 3958308136,
    "osm_type": "node",
    "scraped_at": "2026-03-06T09:49:27.817556"
  },
  {
    "category": "hotels",
    "name": "The Auckland",
    "type": "hotel",
    "cuisine": "",
    "address": "313-315, Marine Road Central, Morecambe, LA4 5AA",
    "postcode": "LA4 5AA",
    "town": "Morecambe",
    "latitude": 54.0746473,
    "longitude": -2.863149,
    "phone": "",
    "website": "",
    "opening_hours": "",
    "stars": "",
    "wheelchair": "",
    "osm_id": 3958308138,
    "osm_type": "node",
    "scraped_at": "2026-03-06T09:49:27.817558"
  },
  {
    "category": "hotels",
    "name": "Travelodge",
    "type": "hotel",
    "cuisine": "",
    "address": "57, Euston Road, Morecambe, LA4 5DG",
    "postcode": "LA4 5DG",
    "town": "Morecambe",
    "latitude": 54.0718804,
    "longitude": -2.864361,
    "phone": "+44 871 984 6479",
    "website": "https://www.travelodge.co.uk/hotels/516/Morecambe-hotel",
    "opening_hours": "",
    "stars": "",
    "wheelchair": "",
    "osm_id": 3959675667,
    "osm_type": "node",
    "scraped_at": "2026-03-06T09:49:27.817560"
  },
  {
    "category": "hotels",
    "name": "The Crown Hotel",
    "type": "hotel",
    "cuisine": "",
    "address": "Marine Road Central, Morecambe",
    "postcode": "",
    "town": "Morecambe",
    "latitude": 54.072496,
    "longitude": -2.8684018,
    "phone": "",
    "website": "",
    "opening_hours": "",
    "stars": "",
    "wheelchair": "",
    "osm_id": 3959769336,
    "osm_type": "node",
    "scraped_at": "2026-03-06T09:49:27.817561"
  },
  {
    "category": "hotels",
    "name": "Devonia B&B",
    "type": "guest_house",
    "cuisine": "",
    "address": "Skipton Street, Morecambe",
    "postcode": "",
    "town": "Morecambe",
    "latitude": 54.072185,
    "longitude": -2.8686195,
    "phone": "",
    "website": "",
    "opening_hours": "",
    "stars": "",
    "wheelchair": "",
    "osm_id": 3966200412,
    "osm_type": "node",
    "scraped_at": "2026-03-06T09:49:27.817563"
  },
  {
    "category": "hotels",
    "name": "Shaftsbury Hotel",
    "type": "hotel",
    "cuisine": "",
    "address": "Skipton Street, Morecambe",
    "postcode": "",
    "town": "Morecambe",
    "latitude": 54.0721159,
    "longitude": -2.8686236,
    "phone": "",
    "website": "",
    "opening_hours": "",
    "stars": "",
    "wheelchair": "",
    "osm_id": 3966200414,
    "osm_type": "node",
    "scraped_at": "2026-03-06T09:49:27.817564"
  },
  {
    "category": "hotels",
    "name": "Clifton Hotel",
    "type": "hotel",
    "cuisine": "",
    "address": "43-46, Marine Road West, Morecambe, LA3 1BZ",
    "postcode": "LA3 1BZ",
    "town": "Morecambe",
    "latitude": 54.0658914,
    "longitude": -2.8809607,
    "phone": "",
    "website": "",
    "opening_hours": "",
    "stars": "",
    "wheelchair": "no",
    "osm_id": 3984126177,
    "osm_type": "node",
    "scraped_at": "2026-03-06T09:49:27.817566"
  },
  {
    "category": "hotels",
    "name": "The Berkeley",
    "type": "guest_house",
    "cuisine": "",
    "address": "39, Marine Road West, Morecambe, LA3 1BZ",
    "postcode": "LA3 1BZ",
    "town": "Morecambe",
    "latitude": 54.0656615,
    "longitude": -2.8813191,
    "phone": "+44 1524 418 201",
    "website": "",
    "opening_hours": "",
    "stars": "",
    "wheelchair": "",
    "osm_id": 3984126178,
    "osm_type": "node",
    "scraped_at": "2026-03-06T09:49:27.817568"
  },
  {
    "category": "hotels",
    "name": "The Kerswell",
    "type": "guest_house",
    "cuisine": "",
    "address": "36, Marine Road West, Morecambe, LA3 1BZ",
    "postcode": "LA3 1BZ",
    "town": "Morecambe",
    "latitude": 54.065533,
    "longitude": -2.8815174,
    "phone": "+44 1524 418 427",
    "website": "",
    "opening_hours": "",
    "stars": "",
    "wheelchair": "no",
    "osm_id": 3984126179,
    "osm_type": "node",
    "scraped_at": "2026-03-06T09:49:27.817573"
  },
  {
    "category": "hotels",
    "name": "The Balmoral",
    "type": "guest_house",
    "cuisine": "",
    "address": "34, Marine Road West, Morecambe, LA3 1BZ",
    "postcode": "LA3 1BZ",
    "town": "Morecambe",
    "latitude": 54.0654479,
    "longitude": -2.8816575,
    "phone": "+44 1524 418 526",
    "website": "",
    "opening_hours": "",
    "stars": "",
    "wheelchair": "no",
    "osm_id": 3984126181,
    "osm_type": "node",
    "scraped_at": "2026-03-06T09:49:27.817575"
  },
  {
    "category": "hotels",
    "name": "Westleigh",
    "type": "guest_house",
    "cuisine": "",
    "address": "9, Marine Road West, Morecambe, LA3 1BS",
    "postcode": "LA3 1BS",
    "town": "Morecambe",
    "latitude": 54.0646901,
    "longitude": -2.8844067,
    "phone": "+44 1524 418352",
    "website": "",
    "opening_hours": "",
    "stars": "",
    "wheelchair": "",
    "osm_id": 3985987545,
    "osm_type": "node",
    "scraped_at": "2026-03-06T09:49:27.817576"
  },
  {
    "category": "hotels",
    "name": "Chesham Hill Farm",
    "type": "guest_house",
    "cuisine": "",
    "address": "Preston, PR4 0UA",
    "postcode": "PR4 0UA",
    "town": "Preston",
    "latitude": 53.8437891,
    "longitude": -2.8191384,
    "phone": "",
    "website": "",
    "opening_hours": "",
    "stars": "",
    "wheelchair": "",
    "osm_id": 4607529058,
    "osm_type": "node",
    "scraped_at": "2026-03-06T09:49:27.817578"
  },
  {
    "category": "hotels",
    "name": "Red Hall Hotel",
    "type": "hotel",
    "cuisine": "",
    "address": "Manchester Road, Bury, BL9 5NA",
    "postcode": "BL9 5NA",
    "town": "Bury",
    "latitude": 53.6359656,
    "longitude": -2.3017473,
    "phone": "",
    "website": "",
    "opening_hours": "",
    "stars": "3",
    "wheelchair": "",
    "osm_id": 4716530984,
    "osm_type": "node",
    "scraped_at": "2026-03-06T09:49:27.817580"
  },
  {
    "category": "hotels",
    "name": "Our House",
    "type": "guest_house",
    "cuisine": "",
    "address": "11, Perry Close",
    "postcode": "",
    "town": "",
    "latitude": 53.6058254,
    "longitude": -2.1689698,
    "phone": "",
    "website": "",
    "opening_hours": "",
    "stars": "",
    "wheelchair": "",
    "osm_id": 4874412221,
    "osm_type": "node",
    "scraped_at": "2026-03-06T09:49:27.817583"
  },
  {
    "category": "hotels",
    "name": "Premier Inn Preston Central",
    "type": "hotel",
    "cuisine": "",
    "address": "Fox Street, Preston, PR1 2AB",
    "postcode": "PR1 2AB",
    "town": "Preston",
    "latitude": 53.7588161,
    "longitude": -2.704407,
    "phone": "",
    "website": "https://www.premierinn.com/gb/en/hotels/england/lancashire/preston/preston-central.html",
    "opening_hours": "",
    "stars": "",
    "wheelchair": "",
    "osm_id": 5169371351,
    "osm_type": "node",
    "scraped_at": "2026-03-06T09:49:27.817585"
  },
  {
    "category": "hotels",
    "name": "Moon NJF Residential",
    "type": "hotel",
    "cuisine": "",
    "address": "",
    "postcode": "",
    "town": "",
    "latitude": 54.0641665,
    "longitude": -2.1557175,
    "phone": "",
    "website": "",
    "opening_hours": "",
    "stars": "",
    "wheelchair": "",
    "osm_id": 5213931266,
    "osm_type": "node",
    "scraped_at": "2026-03-06T09:49:27.817587"
  },
  {
    "category": "hotels",
    "name": "Lister Barn",
    "type": "guest_house",
    "cuisine": "",
    "address": "",
    "postcode": "",
    "town": "",
    "latitude": 54.0621267,
    "longitude": -2.153549,
    "phone": "",
    "website": "",
    "opening_hours": "",
    "stars": "",
    "wheelchair": "",
    "osm_id": 5213931271,
    "osm_type": "node",
    "scraped_at": "2026-03-06T09:49:27.817588"
  },
  {
    "category": "hotels",
    "name": "Lothersdale Hotel",
    "type": "hotel",
    "cuisine": "",
    "address": "320-323, Marine Road Central, Morecambe, LA4 5AA",
    "postcode": "LA4 5AA",
    "town": "Morecambe",
    "latitude": 54.0748558,
    "longitude": -2.8625214,
    "phone": "",
    "website": "",
    "opening_hours": "",
    "stars": "",
    "wheelchair": "",
    "osm_id": 5358967122,
    "osm_type": "node",
    "scraped_at": "2026-03-06T09:49:27.817590"
  },
  {
    "category": "hotels",
    "name": "Commercial Hotel",
    "type": "pub",
    "cuisine": "",
    "address": "",
    "postcode": "",
    "town": "",
    "latitude": 53.7047863,
    "longitude": -2.3257804,
    "phone": "",
    "website": "",
    "opening_hours": "",
    "stars": "",
    "wheelchair": "",
    "osm_id": 5908438080,
    "osm_type": "node",
    "scraped_at": "2026-03-06T09:49:27.817594"
  },
  {
    "category": "hotels",
    "name": "King William the Fourth Guest House",
    "type": "guest_house",
    "cuisine": "",
    "address": "High Street, Settle, BD24 9EX",
    "postcode": "BD24 9EX",
    "town": "Settle",
    "latitude": 54.0679,
    "longitude": -2.2757429,
    "phone": "",
    "website": "https://www.kingwilliamthefourthguesthouse.co.uk/",
    "opening_hours": "",
    "stars": "",
    "wheelchair": "",
    "osm_id": 6192605385,
    "osm_type": "node",
    "scraped_at": "2026-03-06T09:49:27.817595"
  },
  {
    "category": "hotels",
    "name": "Theatre Hotel",
    "type": "hotel",
    "cuisine": "",
    "address": "10, Dole Lane, Chorley, PR7 2RL",
    "postcode": "PR7 2RL",
    "town": "Chorley",
    "latitude": 53.6532834,
    "longitude": -2.6339329,
    "phone": "",
    "website": "",
    "opening_hours": "",
    "stars": "",
    "wheelchair": "",
    "osm_id": 6220864454,
    "osm_type": "node",
    "scraped_at": "2026-03-06T09:49:27.817597"
  },
  {
    "category": "hotels",
    "name": "Bartle Hall",
    "type": "hotel",
    "cuisine": "",
    "address": "Lea Lane, Preston, PR4 0HA",
    "postcode": "PR4 0HA",
    "town": "Preston",
    "latitude": 53.7929583,
    "longitude": -2.7815104,
    "phone": "",
    "website": "",
    "opening_hours": "",
    "stars": "",
    "wheelchair": "",
    "osm_id": 6353264594,
    "osm_type": "node",
    "scraped_at": "2026-03-06T09:49:27.817599"
  },
  {
    "category": "hotels",
    "name": "The Ridges",
    "type": "guest_house",
    "cuisine": "",
    "address": "Weavers Brow, Chorley, PR6 9EB",
    "postcode": "PR6 9EB",
    "town": "Chorley",
    "latitude": 53.6438126,
    "longitude": -2.6089539,
    "phone": "",
    "website": "",
    "opening_hours": "",
    "stars": "",
    "wheelchair": "",
    "osm_id": 6635620667,
    "osm_type": "node",
    "scraped_at": "2026-03-06T09:49:27.817600"
  },
  {
    "category": "hotels",
    "name": "Earby Holiday Hostel",
    "type": "hostel",
    "cuisine": "",
    "address": "13, Birch Hall Lane, Barnoldswick, BB18 6JX",
    "postcode": "BB18 6JX",
    "town": "Barnoldswick",
    "latitude": 53.9180143,
    "longitude": -2.1305984,
    "phone": "+44 7791903454",
    "website": "https://www.earbyhostel.co.uk/",
    "opening_hours": "",
    "stars": "",
    "wheelchair": "",
    "osm_id": 6749189185,
    "osm_type": "node",
    "scraped_at": "2026-03-06T09:49:27.817602"
  },
  {
    "category": "hotels",
    "name": "Six Acres B&B",
    "type": "guest_house",
    "cuisine": "",
    "address": "Trailholme Road, Overton, LA3 3HG",
    "postcode": "LA3 3HG",
    "town": "Overton",
    "latitude": 54.0145131,
    "longitude": -2.8667775,
    "phone": "",
    "website": "",
    "opening_hours": "",
    "stars": "",
    "wheelchair": "",
    "osm_id": 6848123916,
    "osm_type": "node",
    "scraped_at": "2026-03-06T09:49:27.817604"
  },
  {
    "category": "hotels",
    "name": "Spa Hotel",
    "type": "hotel",
    "cuisine": "",
    "address": "",
    "postcode": "",
    "town": "",
    "latitude": 53.7752072,
    "longitude": -2.897062,
    "phone": "",
    "website": "",
    "opening_hours": "",
    "stars": "",
    "wheelchair": "",
    "osm_id": 6906507470,
    "osm_type": "node",
    "scraped_at": "2026-03-06T09:49:27.817606"
  },
  {
    "category": "hotels",
    "name": "Miresfield Bed & Breakfast",
    "type": "guest_house",
    "cuisine": "",
    "address": "Skipton, BD23 4DA",
    "postcode": "BD23 4DA",
    "town": "Skipton",
    "latitude": 54.0608608,
    "longitude": -2.1520902,
    "phone": "+441729 830414",
    "website": "http://miresfieldfarm.co.uk/",
    "opening_hours": "",
    "stars": "",
    "wheelchair": "",
    "osm_id": 7028398819,
    "osm_type": "node",
    "scraped_at": "2026-03-06T09:49:27.817607"
  },
  {
    "category": "hotels",
    "name": "Lindon Guest House",
    "type": "guest_house",
    "cuisine": "",
    "address": "Skipton, BD23 4BE",
    "postcode": "BD23 4BE",
    "town": "Skipton",
    "latitude": 54.031229,
    "longitude": -2.1522199,
    "phone": "",
    "website": "www.lindonguesthouse.co.uk",
    "opening_hours": "",
    "stars": "",
    "wheelchair": "",
    "osm_id": 7187193615,
    "osm_type": "node",
    "scraped_at": "2026-03-06T09:49:27.817609"
  },
  {
    "category": "hotels",
    "name": "Clerk Laithe Lodge",
    "type": "guest_house",
    "cuisine": "",
    "address": "Clitheroe, BB7 3EB",
    "postcode": "BB7 3EB",
    "town": "Clitheroe",
    "latitude": 53.9533841,
    "longitude": -2.4607655,
    "phone": "",
    "website": "https://www.clerklaithe.co.uk/",
    "opening_hours": "",
    "stars": "",
    "wheelchair": "",
    "osm_id": 7457266494,
    "osm_type": "node",
    "scraped_at": "2026-03-06T09:49:27.817612"
  },
  {
    "category": "hotels",
    "name": "Spinning Block",
    "type": "hotel",
    "cuisine": "",
    "address": "",
    "postcode": "",
    "town": "",
    "latitude": 53.867802,
    "longitude": -2.3949165,
    "phone": "",
    "website": "",
    "opening_hours": "",
    "stars": "",
    "wheelchair": "",
    "osm_id": 7526556661,
    "osm_type": "node",
    "scraped_at": "2026-03-06T09:49:27.817614"
  },
  {
    "category": "hotels",
    "name": "Domain",
    "type": "hotel",
    "cuisine": "",
    "address": "14, New Street, Lancaster, LA1 1EG",
    "postcode": "LA1 1EG",
    "town": "Lancaster",
    "latitude": 54.0494537,
    "longitude": -2.802074,
    "phone": "",
    "website": "https://domainboutiquestays.com/",
    "opening_hours": "",
    "stars": "",
    "wheelchair": "",
    "osm_id": 7580988370,
    "osm_type": "node",
    "scraped_at": "2026-03-06T09:49:27.817618"
  },
  {
    "category": "hotels",
    "name": "Waddow Hall",
    "type": "guest_house",
    "cuisine": "",
    "address": "",
    "postcode": "",
    "town": "",
    "latitude": 53.8796684,
    "longitude": -2.4047646,
    "phone": "",
    "website": "",
    "opening_hours": "",
    "stars": "",
    "wheelchair": "",
    "osm_id": 7797016672,
    "osm_type": "node",
    "scraped_at": "2026-03-06T09:49:27.817619"
  },
  {
    "category": "hotels",
    "name": "Parr Hall Farm",
    "type": "guest_house",
    "cuisine": "",
    "address": "Parr Lane, Chorley, PR7 5SL",
    "postcode": "PR7 5SL",
    "town": "Chorley",
    "latitude": 53.6504345,
    "longitude": -2.7292255,
    "phone": "",
    "website": "",
    "opening_hours": "",
    "stars": "4",
    "wheelchair": "",
    "osm_id": 8453946201,
    "osm_type": "node",
    "scraped_at": "2026-03-06T09:49:27.817621"
  },
  {
    "category": "hotels",
    "name": "The Kings Arms Hotel",
    "type": "hotel",
    "cuisine": "",
    "address": "PR3 1EA",
    "postcode": "PR3 1EA",
    "town": "",
    "latitude": 53.9009078,
    "longitude": -2.7743294,
    "phone": "",
    "website": "https://www.craftunionpubs.com/kings-arms-garstang",
    "opening_hours": "Mo-Sa 10:00-23:00; Su 11:00-22:00",
    "stars": "",
    "wheelchair": "",
    "osm_id": 9025065956,
    "osm_type": "node",
    "scraped_at": "2026-03-06T09:49:27.817624"
  },
  {
    "category": "hotels",
    "name": "Dale House Barn",
    "type": "guest_house",
    "cuisine": "",
    "address": "Clitheroe, BB7 4TS",
    "postcode": "BB7 4TS",
    "town": "Clitheroe",
    "latitude": 54.0245879,
    "longitude": -2.4065487,
    "phone": "",
    "website": "https://dalehousebarn.co.uk/",
    "opening_hours": "",
    "stars": "",
    "wheelchair": "",
    "osm_id": 9931681829,
    "osm_type": "node",
    "scraped_at": "2026-03-06T09:49:27.817626"
  },
  {
    "category": "hotels",
    "name": "Three Peak View Cottage",
    "type": "guest_house",
    "cuisine": "",
    "address": "",
    "postcode": "",
    "town": "",
    "latitude": 53.9907578,
    "longitude": -2.3019082,
    "phone": "",
    "website": "",
    "opening_hours": "",
    "stars": "",
    "wheelchair": "",
    "osm_id": 10031020295,
    "osm_type": "node",
    "scraped_at": "2026-03-06T09:49:27.817628"
  },
  {
    "category": "hotels",
    "name": "Hotel 99",
    "type": "hotel",
    "cuisine": "",
    "address": "",
    "postcode": "",
    "town": "",
    "latitude": 53.7465251,
    "longitude": -2.4837282,
    "phone": "",
    "website": "",
    "opening_hours": "",
    "stars": "",
    "wheelchair": "",
    "osm_id": 11282324955,
    "osm_type": "node",
    "scraped_at": "2026-03-06T09:49:27.817629"
  },
  {
    "category": "hotels",
    "name": "No.10 Preston",
    "type": "hotel",
    "cuisine": "",
    "address": "10, Theatre Street, Preston, PR1 8BQ",
    "postcode": "PR1 8BQ",
    "town": "Preston",
    "latitude": 53.7570558,
    "longitude": -2.7043487,
    "phone": "",
    "website": "https://no10preston.co.uk",
    "opening_hours": "",
    "stars": "",
    "wheelchair": "",
    "osm_id": 11948940529,
    "osm_type": "node",
    "scraped_at": "2026-03-06T09:49:27.817631"
  },
  {
    "category": "hotels",
    "name": "Winsley Hotel",
    "type": "hotel",
    "cuisine": "",
    "address": "12, Skipton Street, Morecambe, LA4 4AR",
    "postcode": "LA4 4AR",
    "town": "Morecambe",
    "latitude": 54.072043,
    "longitude": -2.8683754,
    "phone": "",
    "website": "",
    "opening_hours": "",
    "stars": "",
    "wheelchair": "",
    "osm_id": 12232691872,
    "osm_type": "node",
    "scraped_at": "2026-03-06T09:49:27.817637"
  },
  {
    "category": "hotels",
    "name": "Dunkenhalgh Hotel",
    "type": "hotel",
    "cuisine": "",
    "address": "Blackburn Road, Accrington, BB5 5JP",
    "postcode": "BB5 5JP",
    "town": "Accrington",
    "latitude": 53.766398,
    "longitude": -2.3956391,
    "phone": "",
    "website": "",
    "opening_hours": "",
    "stars": "4",
    "wheelchair": "",
    "osm_id": 12396435333,
    "osm_type": "node",
    "scraped_at": "2026-03-06T09:49:27.817639"
  },
  {
    "category": "hotels",
    "name": "Lancaster Barn B&B",
    "type": "guest_house",
    "cuisine": "",
    "address": "LA2 0HW",
    "postcode": "LA2 0HW",
    "town": "",
    "latitude": 53.9678476,
    "longitude": -2.7795083,
    "phone": "+44 1524 941449",
    "website": "https://www.lancasterbarn.co.uk/",
    "opening_hours": "",
    "stars": "",
    "wheelchair": "",
    "osm_id": 12826922888,
    "osm_type": "node",
    "scraped_at": "2026-03-06T09:49:27.817641"
  },
  {
    "category": "hotels",
    "name": "The Golden Lion",
    "type": "hotel",
    "cuisine": "",
    "address": "5, Duke Street, Settle, BD24 9DU",
    "postcode": "BD24 9DU",
    "town": "Settle",
    "latitude": 54.0680914,
    "longitude": -2.2770956,
    "phone": "",
    "website": "",
    "opening_hours": "",
    "stars": "",
    "wheelchair": "",
    "osm_id": 13107931866,
    "osm_type": "node",
    "scraped_at": "2026-03-06T09:49:27.817642"
  },
  {
    "category": "hotels",
    "name": "Regent Guest House",
    "type": "guest_house",
    "cuisine": "",
    "address": "5, Albert Street, Burnley, BB11 3BD",
    "postcode": "BB11 3BD",
    "town": "Burnley",
    "latitude": 53.789392,
    "longitude": -2.2347785,
    "phone": "+44 2081 459283",
    "website": "https://regenthotelgroup.com/",
    "opening_hours": "",
    "stars": "",
    "wheelchair": "",
    "osm_id": 13240052477,
    "osm_type": "node",
    "scraped_at": "2026-03-06T09:49:27.817644"
  },
  {
    "category": "hotels",
    "name": "Lowfield",
    "type": "guest_house",
    "cuisine": "",
    "address": "Bay Horse Road, Bay Horse, LA2 0HR",
    "postcode": "LA2 0HR",
    "town": "Bay Horse",
    "latitude": 53.9682985,
    "longitude": -2.7762027,
    "phone": "+44 1524 792912",
    "website": "https://lowfield.org",
    "opening_hours": "",
    "stars": "",
    "wheelchair": "",
    "osm_id": 13341483330,
    "osm_type": "node",
    "scraped_at": "2026-03-06T09:49:27.817646"
  },
  {
    "category": "hotels",
    "name": "Olde Duncombe House",
    "type": "guest_house",
    "cuisine": "",
    "address": "Garstang Road, PR3 0RE",
    "postcode": "PR3 0RE",
    "town": "",
    "latitude": 53.8513825,
    "longitude": -2.7465202,
    "phone": "+44 1995 640336",
    "website": "https://www.oldeduncombehouse.co.uk/",
    "opening_hours": "",
    "stars": "",
    "wheelchair": "",
    "osm_id": 13427697892,
    "osm_type": "node",
    "scraped_at": "2026-03-06T09:49:27.817648"
  },
  {
    "category": "hotels",
    "name": "Farington Lodge Hotel",
    "type": "hotel",
    "cuisine": "",
    "address": "Stanifield Lane, Leyland, PR25 4QR",
    "postcode": "PR25 4QR",
    "town": "Leyland",
    "latitude": 53.7065175,
    "longitude": -2.6845888,
    "phone": "",
    "website": "",
    "opening_hours": "",
    "stars": "",
    "wheelchair": "",
    "osm_id": 23239591,
    "osm_type": "way",
    "scraped_at": "2026-03-06T09:49:27.817650"
  },
  {
    "category": "hotels",
    "name": "YMCA",
    "type": "hostel",
    "cuisine": "",
    "address": "",
    "postcode": "",
    "town": "",
    "latitude": 53.7625583,
    "longitude": -2.6730769,
    "phone": "",
    "website": "",
    "opening_hours": "",
    "stars": "",
    "wheelchair": "",
    "osm_id": 31762773,
    "osm_type": "way",
    "scraped_at": "2026-03-06T09:49:27.817652"
  },
  {
    "category": "hotels",
    "name": "Travelodge Preston Central",
    "type": "hotel",
    "cuisine": "",
    "address": "New Hall Lane, Preston, PR1 5NQ",
    "postcode": "PR1 5NQ",
    "town": "Preston",
    "latitude": 53.7611934,
    "longitude": -2.6848946,
    "phone": "",
    "website": "https://www.travelodge.co.uk/hotels/305/Preston-Central-hotel",
    "opening_hours": "",
    "stars": "",
    "wheelchair": "",
    "osm_id": 31783549,
    "osm_type": "way",
    "scraped_at": "2026-03-06T09:49:27.817654"
  },
  {
    "category": "hotels",
    "name": "Rivington Lodge",
    "type": "hotel",
    "cuisine": "",
    "address": "Bolton, BL6 5UZ",
    "postcode": "BL6 5UZ",
    "town": "Bolton",
    "latitude": 53.6009635,
    "longitude": -2.5728117,
    "phone": "",
    "website": "",
    "opening_hours": "",
    "stars": "",
    "wheelchair": "",
    "osm_id": 32952271,
    "osm_type": "way",
    "scraped_at": "2026-03-06T09:49:27.817658"
  },
  {
    "category": "hotels",
    "name": "Premier Inn",
    "type": "hotel",
    "cuisine": "",
    "address": "Queen Victoria Road, Burnley, BB10 3EF",
    "postcode": "BB10 3EF",
    "town": "Burnley",
    "latitude": 53.7965741,
    "longitude": -2.2329245,
    "phone": "",
    "website": "https://www.premierinn.com/gb/en/hotels/england/lancashire/burnley/burnley.html",
    "opening_hours": "",
    "stars": "",
    "wheelchair": "",
    "osm_id": 36931375,
    "osm_type": "way",
    "scraped_at": "2026-03-06T09:49:27.817660"
  },
  {
    "category": "hotels",
    "name": "The Avenue Hotel",
    "type": "hotel",
    "cuisine": "",
    "address": "Blackburn, BB6 8AY",
    "postcode": "BB6 8AY",
    "town": "Blackburn",
    "latitude": 53.8231186,
    "longitude": -2.4526127,
    "phone": "",
    "website": "https://www.facebook.com/avenuehotelbrockhallvillage/",
    "opening_hours": "",
    "stars": "",
    "wheelchair": "",
    "osm_id": 51984812,
    "osm_type": "way",
    "scraped_at": "2026-03-06T09:49:27.817661"
  },
  {
    "category": "hotels",
    "name": "Lea Gate Hotel",
    "type": "hotel",
    "cuisine": "",
    "address": "Blackpool Road, Preston, PR4 0XB",
    "postcode": "PR4 0XB",
    "town": "Preston",
    "latitude": 53.7619785,
    "longitude": -2.7924052,
    "phone": "",
    "website": "https://www.greenekinginns.co.uk/hotels/lea-gate/",
    "opening_hours": "",
    "stars": "",
    "wheelchair": "",
    "osm_id": 57673584,
    "osm_type": "way",
    "scraped_at": "2026-03-06T09:49:27.817663"
  },
  {
    "category": "hotels",
    "name": "Stirk House Hotel",
    "type": "hotel",
    "cuisine": "",
    "address": "",
    "postcode": "",
    "town": "",
    "latitude": 53.9293072,
    "longitude": -2.2885365,
    "phone": "",
    "website": "",
    "opening_hours": "",
    "stars": "",
    "wheelchair": "",
    "osm_id": 61672568,
    "osm_type": "way",
    "scraped_at": "2026-03-06T09:49:27.817666"
  },
  {
    "category": "hotels",
    "name": "Premier Inn",
    "type": "hotel",
    "cuisine": "",
    "address": "",
    "postcode": "",
    "town": "",
    "latitude": 53.7899737,
    "longitude": -2.6584134,
    "phone": "",
    "website": "https://www.premierinn.com/gb/en/hotels/england/lancashire/preston/preston-east.html",
    "opening_hours": "",
    "stars": "",
    "wheelchair": "",
    "osm_id": 62235430,
    "osm_type": "way",
    "scraped_at": "2026-03-06T09:49:27.817668"
  },
  {
    "category": "hotels",
    "name": "Ibis",
    "type": "hotel",
    "cuisine": "",
    "address": "Garstang Road, Preston, PR3 5JE",
    "postcode": "PR3 5JE",
    "town": "Preston",
    "latitude": 53.8005124,
    "longitude": -2.7149845,
    "phone": "+44 1772 957120",
    "website": "https://all.accor.com/hotel/3162/index.en.shtml",
    "opening_hours": "",
    "stars": "",
    "wheelchair": "yes",
    "osm_id": 66922596,
    "osm_type": "way",
    "scraped_at": "2026-03-06T09:49:27.817670"
  },
  {
    "category": "hotels",
    "name": "The Midland Hotel",
    "type": "hotel",
    "cuisine": "",
    "address": "Marine Road Central, Morecambe, LA4 4DB",
    "postcode": "LA4 4DB",
    "town": "Morecambe",
    "latitude": 54.0722478,
    "longitude": -2.8752723,
    "phone": "+44 1524 804 749",
    "website": "https://www.inncollectiongroup.com/the-midland-hotel/",
    "opening_hours": "",
    "stars": "",
    "wheelchair": "yes",
    "osm_id": 69284303,
    "osm_type": "way",
    "scraped_at": "2026-03-06T09:49:27.817672"
  },
  {
    "category": "hotels",
    "name": "Legacy International Hotel",
    "type": "hotel",
    "cuisine": "",
    "address": "Preston, PR1 8RQ",
    "postcode": "PR1 8RQ",
    "town": "Preston",
    "latitude": 53.7601183,
    "longitude": -2.7084722,
    "phone": "",
    "website": "",
    "opening_hours": "",
    "stars": "",
    "wheelchair": "",
    "osm_id": 73843207,
    "osm_type": "way",
    "scraped_at": "2026-03-06T09:49:27.817673"
  },
  {
    "category": "hotels",
    "name": "Delta Hotel Marriott",
    "type": "hotel",
    "cuisine": "",
    "address": "418, Garstang Road, Preston, PR3 5JB",
    "postcode": "PR3 5JB",
    "town": "Preston",
    "latitude": 53.8057825,
    "longitude": -2.7175002,
    "phone": "",
    "website": "",
    "opening_hours": "",
    "stars": "",
    "wheelchair": "",
    "osm_id": 81337725,
    "osm_type": "way",
    "scraped_at": "2026-03-06T09:49:27.817675"
  },
  {
    "category": "hotels",
    "name": "Lancaster House Hotel",
    "type": "hotel",
    "cuisine": "",
    "address": "Green Lane, Lancaster, LA1 4GJ",
    "postcode": "LA1 4GJ",
    "town": "Lancaster",
    "latitude": 54.0063445,
    "longitude": -2.7884144,
    "phone": "+44 1524 844 822",
    "website": "https://englishlakes.co.uk/hotels/lancaster-house-hotel/",
    "opening_hours": "",
    "stars": "",
    "wheelchair": "",
    "osm_id": 90424773,
    "osm_type": "way",
    "scraped_at": "2026-03-06T09:49:27.817679"
  },
  {
    "category": "hotels",
    "name": "Clarendon Hotel",
    "type": "hotel",
    "cuisine": "",
    "address": "74-76, Marine Road West, Morecambe, LA4 4EP",
    "postcode": "LA4 4EP",
    "town": "Morecambe",
    "latitude": 54.0670262,
    "longitude": -2.879091,
    "phone": "",
    "website": "",
    "opening_hours": "",
    "stars": "",
    "wheelchair": "",
    "osm_id": 100533006,
    "osm_type": "way",
    "scraped_at": "2026-03-06T09:49:27.817681"
  },
  {
    "category": "hotels",
    "name": "Garstang Country Hotel and Golf Centre",
    "type": "hotel",
    "cuisine": "",
    "address": "",
    "postcode": "",
    "town": "",
    "latitude": 53.8872061,
    "longitude": -2.7706817,
    "phone": "",
    "website": "",
    "opening_hours": "",
    "stars": "",
    "wheelchair": "",
    "osm_id": 111221193,
    "osm_type": "way",
    "scraped_at": "2026-03-06T09:49:27.817682"
  },
  {
    "category": "hotels",
    "name": "The Lister Arms Hotel",
    "type": "pub",
    "cuisine": "",
    "address": "Finkle Street, Skipton, BD23 4DB",
    "postcode": "BD23 4DB",
    "town": "Skipton",
    "latitude": 54.062027,
    "longitude": -2.1524209,
    "phone": "",
    "website": "https://www.listerarms.co.uk/",
    "opening_hours": "Su-Th 12:00-21:30; Fr,Sa 12:00-22:00",
    "stars": "",
    "wheelchair": "yes",
    "osm_id": 118301791,
    "osm_type": "way",
    "scraped_at": "2026-03-06T09:49:27.817684"
  },
  {
    "category": "hotels",
    "name": "River House Hotel",
    "type": "guest_house",
    "cuisine": "",
    "address": "Chapel Gate, Skipton, BD23 4DA",
    "postcode": "BD23 4DA",
    "town": "Skipton",
    "latitude": 54.0607112,
    "longitude": -2.1532393,
    "phone": "+44 1729 830315",
    "website": "https://www.riverhousemalham.co.uk/",
    "opening_hours": "",
    "stars": "",
    "wheelchair": "",
    "osm_id": 118303563,
    "osm_type": "way",
    "scraped_at": "2026-03-06T09:49:27.817688"
  },
  {
    "category": "hotels",
    "name": "Hill Top Farm Bunk Barn",
    "type": "hostel",
    "cuisine": "",
    "address": "",
    "postcode": "",
    "town": "",
    "latitude": 54.0632863,
    "longitude": -2.1551094,
    "phone": "+44 1729 830320",
    "website": "https://hilltopmalham.co.uk/",
    "opening_hours": "",
    "stars": "",
    "wheelchair": "",
    "osm_id": 118318323,
    "osm_type": "way",
    "scraped_at": "2026-03-06T09:49:27.817689"
  },
  {
    "category": "hotels",
    "name": "Beck Hall",
    "type": "guest_house",
    "cuisine": "",
    "address": "Cove Road, Skipton, BD23 4DJ",
    "postcode": "BD23 4DJ",
    "town": "Skipton",
    "latitude": 54.0633302,
    "longitude": -2.1537304,
    "phone": "",
    "website": "",
    "opening_hours": "",
    "stars": "",
    "wheelchair": "",
    "osm_id": 118318397,
    "osm_type": "way",
    "scraped_at": "2026-03-06T09:49:27.817691"
  },
  {
    "category": "hotels",
    "name": "Bluebird Inn",
    "type": "hotel",
    "cuisine": "",
    "address": "Myerscough Road, Blackburn, BB2 7LE",
    "postcode": "BB2 7LE",
    "town": "Blackburn",
    "latitude": 53.7760854,
    "longitude": -2.5803366,
    "phone": "+44 1254 813900",
    "website": "https://www.bluebirdinn.co.uk/",
    "opening_hours": "",
    "stars": "",
    "wheelchair": "yes",
    "osm_id": 137650321,
    "osm_type": "way",
    "scraped_at": "2026-03-06T09:49:27.817693"
  },
  {
    "category": "hotels",
    "name": "The Craven Arms",
    "type": "hotel",
    "cuisine": "",
    "address": "Brackenber Lane, Settle, BD24 0EA",
    "postcode": "BD24 0EA",
    "town": "Settle",
    "latitude": 54.061986,
    "longitude": -2.3013902,
    "phone": "+44 1729 825627",
    "website": "https://craven-arms.co.uk/",
    "opening_hours": "",
    "stars": "",
    "wheelchair": "yes",
    "osm_id": 143425463,
    "osm_type": "way",
    "scraped_at": "2026-03-06T09:49:27.817695"
  },
  {
    "category": "hotels",
    "name": "Youth Hostel Association Malham",
    "type": "hostel",
    "cuisine": "",
    "address": "",
    "postcode": "",
    "town": "",
    "latitude": 54.0625804,
    "longitude": -2.1520074,
    "phone": "",
    "website": "https://www.yha.org.uk/hostel/yha-malham",
    "opening_hours": "",
    "stars": "",
    "wheelchair": "",
    "osm_id": 143978777,
    "osm_type": "way",
    "scraped_at": "2026-03-06T09:49:27.817696"
  },
  {
    "category": "hotels",
    "name": "Premier Inn",
    "type": "hotel",
    "cuisine": "",
    "address": "Hellifield Road, Skipton, BD23 3NB",
    "postcode": "BD23 3NB",
    "town": "Skipton",
    "latitude": 53.9837306,
    "longitude": -2.1170269,
    "phone": "",
    "website": "https://www.premierinn.com/gb/en/hotels/england/north-yorkshire/skipton/skipton-north-gargrave.html",
    "opening_hours": "",
    "stars": "",
    "wheelchair": "",
    "osm_id": 150821914,
    "osm_type": "way",
    "scraped_at": "2026-03-06T09:49:27.817700"
  },
  {
    "category": "hotels",
    "name": "Old Station House Bed & Breakfast",
    "type": "guest_house",
    "cuisine": "",
    "address": "25, Meeting House Lane, Lancaster, LA1 1TX",
    "postcode": "LA1 1TX",
    "town": "Lancaster",
    "latitude": 54.0479813,
    "longitude": -2.8067518,
    "phone": "+44 1524 381060",
    "website": "",
    "opening_hours": "",
    "stars": "",
    "wheelchair": "limited",
    "osm_id": 154979937,
    "osm_type": "way",
    "scraped_at": "2026-03-06T09:49:27.817702"
  },
  {
    "category": "hotels",
    "name": "Crows Hotel",
    "type": "hotel",
    "cuisine": "",
    "address": "10, King Street, Lancaster, LA1 1JN",
    "postcode": "LA1 1JN",
    "town": "Lancaster",
    "latitude": 54.0482102,
    "longitude": -2.8029359,
    "phone": "+44 1524 382888",
    "website": "https://www.crowshotel.co.uk/",
    "opening_hours": "",
    "stars": "",
    "wheelchair": "",
    "osm_id": 159032220,
    "osm_type": "way",
    "scraped_at": "2026-03-06T09:49:27.817704"
  },
  {
    "category": "hotels",
    "name": "Premier Inn Preston North",
    "type": "hotel",
    "cuisine": "",
    "address": "Garstang Road, Preston, PR3 0RN",
    "postcode": "PR3 0RN",
    "town": "Preston",
    "latitude": 53.8511109,
    "longitude": -2.7449801,
    "phone": "",
    "website": "https://www.premierinn.com/gb/en/hotels/england/lancashire/preston/preston-north.html",
    "opening_hours": "",
    "stars": "",
    "wheelchair": "",
    "osm_id": 161369290,
    "osm_type": "way",
    "scraped_at": "2026-03-06T09:49:27.817706"
  },
  {
    "category": "hotels",
    "name": "The Whitehall Hotel",
    "type": "hotel",
    "cuisine": "",
    "address": "Darwen, BB3 2JU",
    "postcode": "BB3 2JU",
    "town": "Darwen",
    "latitude": 53.6813865,
    "longitude": -2.4654739,
    "phone": "+44 1254 701595",
    "website": "http://northwestweddingvenues.com/",
    "opening_hours": "",
    "stars": "",
    "wheelchair": "",
    "osm_id": 162656982,
    "osm_type": "way",
    "scraped_at": "2026-03-06T09:49:27.817707"
  },
  {
    "category": "hotels",
    "name": "Travelodge",
    "type": "hotel",
    "cuisine": "",
    "address": "",
    "postcode": "",
    "town": "",
    "latitude": 53.9612965,
    "longitude": -2.7624126,
    "phone": "",
    "website": "https://www.travelodge.co.uk/hotels/142/Lancaster-M6-hotel",
    "opening_hours": "",
    "stars": "",
    "wheelchair": "",
    "osm_id": 177983366,
    "osm_type": "way",
    "scraped_at": "2026-03-06T09:49:27.817709"
  },
  {
    "category": "hotels",
    "name": "Pyes Mill",
    "type": "hotel",
    "cuisine": "",
    "address": "Thurnham Mill Lane, Conder Green, LA2 0BD",
    "postcode": "LA2 0BD",
    "town": "Conder Green",
    "latitude": 53.9920917,
    "longitude": -2.8234969,
    "phone": "",
    "website": "https://pyesmillhotellancaster.co.uk/",
    "opening_hours": "",
    "stars": "",
    "wheelchair": "",
    "osm_id": 179888925,
    "osm_type": "way",
    "scraped_at": "2026-03-06T09:49:27.817711"
  },
  {
    "category": "hotels",
    "name": "Fence Gate Lodge",
    "type": "hotel",
    "cuisine": "",
    "address": "",
    "postcode": "",
    "town": "",
    "latitude": 53.8297964,
    "longitude": -2.2684149,
    "phone": "",
    "website": "",
    "opening_hours": "",
    "stars": "",
    "wheelchair": "",
    "osm_id": 198310646,
    "osm_type": "way",
    "scraped_at": "2026-03-06T09:49:27.817713"
  },
  {
    "category": "hotels",
    "name": "Hallmark Hotel Preston Leyland",
    "type": "hotel",
    "cuisine": "",
    "address": "Leyland Way, Leyland, PR25 4JX",
    "postcode": "PR25 4JX",
    "town": "Leyland",
    "latitude": 53.6948897,
    "longitude": -2.6801801,
    "phone": "+44 330 028 3420",
    "website": "",
    "opening_hours": "",
    "stars": "",
    "wheelchair": "",
    "osm_id": 198827407,
    "osm_type": "way",
    "scraped_at": "2026-03-06T09:49:27.817714"
  },
  {
    "category": "hotels",
    "name": "Ramada Chorley South Hotel",
    "type": "hotel",
    "cuisine": "",
    "address": "Mill Lane, Chorley, PR7 5LR",
    "postcode": "PR7 5LR",
    "town": "Chorley",
    "latitude": 53.629916,
    "longitude": -2.6926526,
    "phone": "",
    "website": "",
    "opening_hours": "",
    "stars": "",
    "wheelchair": "",
    "osm_id": 204382808,
    "osm_type": "way",
    "scraped_at": "2026-03-06T09:49:27.817716"
  },
  {
    "category": "hotels",
    "name": "Tickled Trout",
    "type": "hotel",
    "cuisine": "",
    "address": "Preston New Road, Preston, PR5 0UJ",
    "postcode": "PR5 0UJ",
    "town": "Preston",
    "latitude": 53.7653366,
    "longitude": -2.6414337,
    "phone": "",
    "website": "",
    "opening_hours": "",
    "stars": "",
    "wheelchair": "",
    "osm_id": 221644447,
    "osm_type": "way",
    "scraped_at": "2026-03-06T09:49:27.817719"
  },
  {
    "category": "hotels",
    "name": "Astley Bank Hotel",
    "type": "hotel",
    "cuisine": "",
    "address": "Bolton Road, Darwen, BB3 2QB",
    "postcode": "BB3 2QB",
    "town": "Darwen",
    "latitude": 53.6860682,
    "longitude": -2.4670346,
    "phone": "",
    "website": "https://www.astleybank.co.uk/",
    "opening_hours": "",
    "stars": "",
    "wheelchair": "",
    "osm_id": 231252928,
    "osm_type": "way",
    "scraped_at": "2026-03-06T09:49:27.817722"
  },
  {
    "category": "hotels",
    "name": "Rufford Arms Hotel",
    "type": "restaurant",
    "cuisine": "",
    "address": "380, Liverpool Road, Ormskirk, L40 1SQ",
    "postcode": "L40 1SQ",
    "town": "Ormskirk",
    "latitude": 53.6455826,
    "longitude": -2.8198144,
    "phone": "",
    "website": "",
    "opening_hours": "Mo-Fr 07:00-21:00; Sa 08:00-21:30; Su 08:00-20:30",
    "stars": "",
    "wheelchair": "",
    "osm_id": 241958943,
    "osm_type": "way",
    "scraped_at": "2026-03-06T09:49:27.817724"
  },
  {
    "category": "hotels",
    "name": "Blakewater Hotel",
    "type": "guest_house",
    "cuisine": "",
    "address": "1, Bridge Street, Blackburn, BB2 2BX",
    "postcode": "BB2 2BX",
    "town": "Blackburn",
    "latitude": 53.7452273,
    "longitude": -2.4811479,
    "phone": "",
    "website": "",
    "opening_hours": "",
    "stars": "",
    "wheelchair": "",
    "osm_id": 272159096,
    "osm_type": "way",
    "scraped_at": "2026-03-06T09:49:27.817725"
  },
  {
    "category": "hotels",
    "name": "Scarthwaite Country House Hotel",
    "type": "hotel",
    "cuisine": "",
    "address": "",
    "postcode": "",
    "town": "",
    "latitude": 54.073177,
    "longitude": -2.7350265,
    "phone": "",
    "website": "",
    "opening_hours": "",
    "stars": "",
    "wheelchair": "",
    "osm_id": 274117934,
    "osm_type": "way",
    "scraped_at": "2026-03-06T09:49:27.817727"
  },
  {
    "category": "hotels",
    "name": "Hill View Hotel",
    "type": "hotel",
    "cuisine": "",
    "address": "90, Preston New Road, Blackburn, BB2 6BH",
    "postcode": "BB2 6BH",
    "town": "Blackburn",
    "latitude": 53.7511654,
    "longitude": -2.4964199,
    "phone": "",
    "website": "",
    "opening_hours": "",
    "stars": "",
    "wheelchair": "",
    "osm_id": 293579508,
    "osm_type": "way",
    "scraped_at": "2026-03-06T09:49:27.817729"
  },
  {
    "category": "hotels",
    "name": "Premier Inn Blackburn South (M65 J4)",
    "type": "hotel",
    "cuisine": "",
    "address": "Riversway Drive, Darwen, BB3 0SN",
    "postcode": "BB3 0SN",
    "town": "Darwen",
    "latitude": 53.7175989,
    "longitude": -2.4745393,
    "phone": "",
    "website": "https://www.premierinn.com/gb/en/hotels/england/lancashire/blackburn/blackburn-south-m65-j4.html",
    "opening_hours": "",
    "stars": "",
    "wheelchair": "",
    "osm_id": 297184685,
    "osm_type": "way",
    "scraped_at": "2026-03-06T09:49:27.817730"
  },
  {
    "category": "hotels",
    "name": "Northcote",
    "type": "hotel",
    "cuisine": "",
    "address": "Northcote Road, Blackburn, BB6 8BE",
    "postcode": "BB6 8BE",
    "town": "Blackburn",
    "latitude": 53.8092396,
    "longitude": -2.4474461,
    "phone": "+44 1254 240555",
    "website": "https://www.northcote.com/",
    "opening_hours": "",
    "stars": "",
    "wheelchair": "",
    "osm_id": 336309826,
    "osm_type": "way",
    "scraped_at": "2026-03-06T09:49:27.817732"
  },
  {
    "category": "hotels",
    "name": "Plaza Hotel",
    "type": "hotel",
    "cuisine": "",
    "address": "Bolton Road, Chorley, PR7 4AB",
    "postcode": "PR7 4AB",
    "town": "Chorley",
    "latitude": 53.6399978,
    "longitude": -2.6171004,
    "phone": "",
    "website": "",
    "opening_hours": "",
    "stars": "",
    "wheelchair": "",
    "osm_id": 339700065,
    "osm_type": "way",
    "scraped_at": "2026-03-06T09:49:27.817734"
  },
  {
    "category": "hotels",
    "name": "Holiday Inn Express Preston - South",
    "type": "hotel",
    "cuisine": "",
    "address": "Walton Summit Road, Preston, PR5 8AA",
    "postcode": "PR5 8AA",
    "town": "Preston",
    "latitude": 53.7187322,
    "longitude": -2.654682,
    "phone": "",
    "website": "",
    "opening_hours": "",
    "stars": "",
    "wheelchair": "",
    "osm_id": 344803049,
    "osm_type": "way",
    "scraped_at": "2026-03-06T09:49:27.817735"
  },
  {
    "category": "hotels",
    "name": "The Samlesbury Hotel",
    "type": "hotel",
    "cuisine": "",
    "address": "Preston New Road, Preston, PR5 0UL",
    "postcode": "PR5 0UL",
    "town": "Preston",
    "latitude": 53.7671253,
    "longitude": -2.6028757,
    "phone": "",
    "website": "",
    "opening_hours": "",
    "stars": "",
    "wheelchair": "",
    "osm_id": 346643618,
    "osm_type": "way",
    "scraped_at": "2026-03-06T09:49:27.817738"
  },
  {
    "category": "hotels",
    "name": "The Ashton",
    "type": "guest_house",
    "cuisine": "",
    "address": "Wyresdale Road, Lancaster, LA1 3JJ",
    "postcode": "LA1 3JJ",
    "town": "Lancaster",
    "latitude": 54.0406786,
    "longitude": -2.7766637,
    "phone": "",
    "website": "",
    "opening_hours": "",
    "stars": "",
    "wheelchair": "",
    "osm_id": 359519729,
    "osm_type": "way",
    "scraped_at": "2026-03-06T09:49:27.817740"
  },
  {
    "category": "hotels",
    "name": "Maypole Inn",
    "type": "pub",
    "cuisine": "",
    "address": "Main Street, Long Preston, BD23 4PH",
    "postcode": "BD23 4PH",
    "town": "Long Preston",
    "latitude": 54.0199736,
    "longitude": -2.2552766,
    "phone": "+44 1729 841066",
    "website": "https://maypole.pub/",
    "opening_hours": "",
    "stars": "",
    "wheelchair": "yes",
    "osm_id": 362734193,
    "osm_type": "way",
    "scraped_at": "2026-03-06T09:49:27.817742"
  },
  {
    "category": "hotels",
    "name": "The Barn Guest House",
    "type": "guest_house",
    "cuisine": "",
    "address": "Main Street, Skipton, BD23 4ND",
    "postcode": "BD23 4ND",
    "town": "Skipton",
    "latitude": 54.0188499,
    "longitude": -2.2537687,
    "phone": "",
    "website": "",
    "opening_hours": "",
    "stars": "",
    "wheelchair": "",
    "osm_id": 362741059,
    "osm_type": "way",
    "scraped_at": "2026-03-06T09:49:27.817744"
  },
  {
    "category": "hotels",
    "name": "The Black Horse Hotel",
    "type": "guest_house",
    "cuisine": "",
    "address": "Gisburn Road, Skipton, BD23 4HU",
    "postcode": "BD23 4HU",
    "town": "Skipton",
    "latitude": 54.0041527,
    "longitude": -2.2219967,
    "phone": "+44 1729 851402",
    "website": "",
    "opening_hours": "",
    "stars": "",
    "wheelchair": "",
    "osm_id": 362771898,
    "osm_type": "way",
    "scraped_at": "2026-03-06T09:49:27.817747"
  },
  {
    "category": "hotels",
    "name": "Fogga Croft Cottage",
    "type": "guest_house",
    "cuisine": "",
    "address": "",
    "postcode": "",
    "town": "",
    "latitude": 53.992632,
    "longitude": -2.1625646,
    "phone": "",
    "website": "",
    "opening_hours": "",
    "stars": "",
    "wheelchair": "",
    "osm_id": 362777922,
    "osm_type": "way",
    "scraped_at": "2026-03-06T09:49:27.817749"
  },
  {
    "category": "hotels",
    "name": "The Coniston Hotel Country Estate & Spa",
    "type": "hotel",
    "cuisine": "",
    "address": "Coniston Cold, BD23 4EB",
    "postcode": "BD23 4EB",
    "town": "Coniston Cold",
    "latitude": 53.9941175,
    "longitude": -2.1642377,
    "phone": "+44 1756 748080",
    "website": "https://www.theconistonhotel.com/",
    "opening_hours": "",
    "stars": "4",
    "wheelchair": "",
    "osm_id": 362777923,
    "osm_type": "way",
    "scraped_at": "2026-03-06T09:49:27.817750"
  },
  {
    "category": "hotels",
    "name": "Premier Inn",
    "type": "hotel",
    "cuisine": "",
    "address": "Caton Road, Lancaster, LA1 3PE",
    "postcode": "LA1 3PE",
    "town": "Lancaster",
    "latitude": 54.0699617,
    "longitude": -2.7779947,
    "phone": "+44 871 527 8576",
    "website": "https://www.premierinn.com/gb/en/hotels/england/lancashire/lancaster/lancaster.html",
    "opening_hours": "",
    "stars": "",
    "wheelchair": "",
    "osm_id": 368735485,
    "osm_type": "way",
    "scraped_at": "2026-03-06T09:49:27.817752"
  },
  {
    "category": "hotels",
    "name": "The Higher Trapp",
    "type": "hotel",
    "cuisine": "",
    "address": "Trapp Lane, Burnley, BB12 7QW",
    "postcode": "BB12 7QW",
    "town": "Burnley",
    "latitude": 53.8164815,
    "longitude": -2.3400475,
    "phone": "",
    "website": "https://lavenderhotels.co.uk/hotels/higher-trapp-house/?tab=contact",
    "opening_hours": "",
    "stars": "",
    "wheelchair": "",
    "osm_id": 387905758,
    "osm_type": "way",
    "scraped_at": "2026-03-06T09:49:27.817754"
  },
  {
    "category": "hotels",
    "name": "Clark House Camping Barn",
    "type": "hostel",
    "cuisine": "",
    "address": "",
    "postcode": "",
    "town": "",
    "latitude": 53.8866741,
    "longitude": -2.58491,
    "phone": "",
    "website": "",
    "opening_hours": "",
    "stars": "",
    "wheelchair": "",
    "osm_id": 409313111,
    "osm_type": "way",
    "scraped_at": "2026-03-06T09:49:27.817755"
  },
  {
    "category": "hotels",
    "name": "Thurnham Hall",
    "type": "hotel",
    "cuisine": "",
    "address": "Thurnham, LA2 0DT",
    "postcode": "LA2 0DT",
    "town": "Thurnham",
    "latitude": 53.984225,
    "longitude": -2.8194391,
    "phone": "",
    "website": "",
    "opening_hours": "",
    "stars": "",
    "wheelchair": "",
    "osm_id": 441978887,
    "osm_type": "way",
    "scraped_at": "2026-03-06T09:49:27.817759"
  },
  {
    "category": "hotels",
    "name": "Travelodge",
    "type": "hotel",
    "cuisine": "",
    "address": "Barracks Road, Burnley",
    "postcode": "",
    "town": "Burnley",
    "latitude": 53.7895033,
    "longitude": -2.260505,
    "phone": "",
    "website": "https://www.travelodge.co.uk/hotels/118/Burnley-hotel",
    "opening_hours": "",
    "stars": "3",
    "wheelchair": "",
    "osm_id": 444331855,
    "osm_type": "way",
    "scraped_at": "2026-03-06T09:49:27.817761"
  },
  {
    "category": "hotels",
    "name": "The Golden Ball",
    "type": "pub",
    "cuisine": "",
    "address": "LA3 3ER",
    "postcode": "LA3 3ER",
    "town": "",
    "latitude": 54.0470665,
    "longitude": -2.8432633,
    "phone": "",
    "website": "https://www.snatchems.co.uk/",
    "opening_hours": "",
    "stars": "",
    "wheelchair": "",
    "osm_id": 452479156,
    "osm_type": "way",
    "scraped_at": "2026-03-06T09:49:27.817763"
  },
  {
    "category": "hotels",
    "name": "Winmarleigh Hall Accommodation",
    "type": "guest_house",
    "cuisine": "",
    "address": "",
    "postcode": "",
    "town": "",
    "latitude": 53.9207997,
    "longitude": -2.8095777,
    "phone": "",
    "website": "",
    "opening_hours": "",
    "stars": "",
    "wheelchair": "",
    "osm_id": 454337629,
    "osm_type": "way",
    "scraped_at": "2026-03-06T09:49:27.817764"
  },
  {
    "category": "hotels",
    "name": "Purple Roomz",
    "type": "hotel",
    "cuisine": "",
    "address": "Lostock Lane, Preston, PR5 6BA",
    "postcode": "PR5 6BA",
    "town": "Preston",
    "latitude": 53.7216109,
    "longitude": -2.6709989,
    "phone": "",
    "website": "",
    "opening_hours": "",
    "stars": "",
    "wheelchair": "",
    "osm_id": 462378852,
    "osm_type": "way",
    "scraped_at": "2026-03-06T09:49:27.817766"
  },
  {
    "category": "hotels",
    "name": "Premier Inn Preston South",
    "type": "hotel",
    "cuisine": "",
    "address": "Craven Drive, Preston, PR5 6BZ",
    "postcode": "PR5 6BZ",
    "town": "Preston",
    "latitude": 53.7206621,
    "longitude": -2.671482,
    "phone": "",
    "website": "https://www.premierinn.com/gb/en/hotels/england/lancashire/preston/preston-south-craven-drive.html",
    "opening_hours": "",
    "stars": "",
    "wheelchair": "",
    "osm_id": 462573627,
    "osm_type": "way",
    "scraped_at": "2026-03-06T09:49:27.817768"
  },
  {
    "category": "hotels",
    "name": "Fence Gate Lodge",
    "type": "hotel",
    "cuisine": "",
    "address": "",
    "postcode": "",
    "town": "",
    "latitude": 53.8296856,
    "longitude": -2.2685799,
    "phone": "",
    "website": "",
    "opening_hours": "",
    "stars": "",
    "wheelchair": "",
    "osm_id": 462818852,
    "osm_type": "way",
    "scraped_at": "2026-03-06T09:49:27.817770"
  },
  {
    "category": "hotels",
    "name": "Old Stone Trough",
    "type": "hotel",
    "cuisine": "",
    "address": "Colne Road, Barnoldswick, BB18 6XY",
    "postcode": "BB18 6XY",
    "town": "Barnoldswick",
    "latitude": 53.8930095,
    "longitude": -2.1567123,
    "phone": "",
    "website": "",
    "opening_hours": "",
    "stars": "",
    "wheelchair": "",
    "osm_id": 477546646,
    "osm_type": "way",
    "scraped_at": "2026-03-06T09:49:27.817771"
  },
  {
    "category": "hotels",
    "name": "The Craven Heifer Inn",
    "type": "hotel",
    "cuisine": "",
    "address": "400, Colne Road, Barnoldswick, BB18 6TF",
    "postcode": "BB18 6TF",
    "town": "Barnoldswick",
    "latitude": 53.8987887,
    "longitude": -2.1511501,
    "phone": "",
    "website": "thecravenheiferinn.co.uk",
    "opening_hours": "",
    "stars": "",
    "wheelchair": "",
    "osm_id": 477551743,
    "osm_type": "way",
    "scraped_at": "2026-03-06T09:49:27.817773"
  },
  {
    "category": "hotels",
    "name": "Beck Hall",
    "type": "hotel",
    "cuisine": "",
    "address": "Cove Road, Skipton, BD23 4DJ",
    "postcode": "BD23 4DJ",
    "town": "Skipton",
    "latitude": 54.0636146,
    "longitude": -2.1532759,
    "phone": "",
    "website": "https://www.beckhallmalham.com/",
    "opening_hours": "",
    "stars": "",
    "wheelchair": "",
    "osm_id": 537942094,
    "osm_type": "way",
    "scraped_at": "2026-03-06T09:49:27.817774"
  },
  {
    "category": "hotels",
    "name": "Newfield Hall",
    "type": "hotel",
    "cuisine": "",
    "address": "Skipton, BD23 4AA",
    "postcode": "BD23 4AA",
    "town": "Skipton",
    "latitude": 54.0190734,
    "longitude": -2.1364707,
    "phone": "+44 20 3974 8865",
    "website": "https://www.hfholidays.co.uk/country-houses/locations/malham-yorkshire-dales",
    "opening_hours": "",
    "stars": "",
    "wheelchair": "",
    "osm_id": 551692794,
    "osm_type": "way",
    "scraped_at": "2026-03-06T09:49:27.817778"
  },
  {
    "category": "hotels",
    "name": "Toll House Inn Hotel",
    "type": "pub",
    "cuisine": "",
    "address": "Penny Street, Lancaster, LA1 1XT",
    "postcode": "LA1 1XT",
    "town": "Lancaster",
    "latitude": 54.0450124,
    "longitude": -2.7997329,
    "phone": "+44 1524 599900",
    "website": "https://www.tollhouseinn.co.uk/",
    "opening_hours": "",
    "stars": "",
    "wheelchair": "",
    "osm_id": 566825585,
    "osm_type": "way",
    "scraped_at": "2026-03-06T09:49:27.817780"
  },
  {
    "category": "hotels",
    "name": "The Royal Hotel and Bar",
    "type": "hotel",
    "cuisine": "",
    "address": "Thurnham Street, Lancaster, LA1 1YD",
    "postcode": "LA1 1YD",
    "town": "Lancaster",
    "latitude": 54.0468286,
    "longitude": -2.798489,
    "phone": "",
    "website": "https://www.theroyalhotelandbar.co.uk/",
    "opening_hours": "",
    "stars": "",
    "wheelchair": "",
    "osm_id": 567798059,
    "osm_type": "way",
    "scraped_at": "2026-03-06T09:49:27.817783"
  },
  {
    "category": "hotels",
    "name": "Premier Inn Chorley North",
    "type": "hotel",
    "cuisine": "",
    "address": "Moss Lane, Chorley, PR6 8AB",
    "postcode": "PR6 8AB",
    "town": "Chorley",
    "latitude": 53.6776494,
    "longitude": -2.6199291,
    "phone": "",
    "website": "https://www.premierinn.com/gb/en/hotels/england/lancashire/chorley/chorley-north.html",
    "opening_hours": "",
    "stars": "",
    "wheelchair": "",
    "osm_id": 575501623,
    "osm_type": "way",
    "scraped_at": "2026-03-06T09:49:27.817785"
  },
  {
    "category": "hotels",
    "name": "Ashwood Hotel",
    "type": "guest_house",
    "cuisine": "",
    "address": "11-13, Fishergate Hill, Preston, PR1 8JB",
    "postcode": "PR1 8JB",
    "town": "Preston",
    "latitude": 53.7559263,
    "longitude": -2.7109325,
    "phone": "",
    "website": "",
    "opening_hours": "",
    "stars": "",
    "wheelchair": "",
    "osm_id": 597499439,
    "osm_type": "way",
    "scraped_at": "2026-03-06T09:49:27.817787"
  },
  {
    "category": "hotels",
    "name": "Park Hall Hotel & Leisure Club",
    "type": "hotel",
    "cuisine": "",
    "address": "",
    "postcode": "",
    "town": "",
    "latitude": 53.6338022,
    "longitude": -2.6949806,
    "phone": "",
    "website": "",
    "opening_hours": "",
    "stars": "",
    "wheelchair": "",
    "osm_id": 602897836,
    "osm_type": "way",
    "scraped_at": "2026-03-06T09:49:27.817788"
  },
  {
    "category": "hotels",
    "name": "Brownhill Hotel",
    "type": "hotel",
    "cuisine": "",
    "address": "",
    "postcode": "",
    "town": "",
    "latitude": 53.6212401,
    "longitude": -2.1613939,
    "phone": "",
    "website": "",
    "opening_hours": "",
    "stars": "",
    "wheelchair": "",
    "osm_id": 632736493,
    "osm_type": "way",
    "scraped_at": "2026-03-06T09:49:27.817790"
  },
  {
    "category": "hotels",
    "name": "Hartwood Hall Hotel",
    "type": "hotel",
    "cuisine": "",
    "address": "Preston Road, Chorley, PR6 7AX",
    "postcode": "PR6 7AX",
    "town": "Chorley",
    "latitude": 53.6681198,
    "longitude": -2.6325777,
    "phone": "",
    "website": "",
    "opening_hours": "",
    "stars": "3",
    "wheelchair": "",
    "osm_id": 640883830,
    "osm_type": "way",
    "scraped_at": "2026-03-06T09:49:27.817791"
  },
  {
    "category": "hotels",
    "name": "The Old Station, Bell Busk Bed & Breakfast",
    "type": "guest_house",
    "cuisine": "",
    "address": "",
    "postcode": "",
    "town": "",
    "latitude": 54.004166,
    "longitude": -2.1512335,
    "phone": "+44 1729 830301",
    "website": "http://www.malhamdalehotels.co.uk/",
    "opening_hours": "",
    "stars": "",
    "wheelchair": "",
    "osm_id": 653234445,
    "osm_type": "way",
    "scraped_at": "2026-03-06T09:49:27.817793"
  },
  {
    "category": "hotels",
    "name": "Inglewood Boutique B&B",
    "type": "guest_house",
    "cuisine": "",
    "address": "19, Southport Road, Chorley, PR7 1LB",
    "postcode": "PR7 1LB",
    "town": "Chorley",
    "latitude": 53.6533223,
    "longitude": -2.6392855,
    "phone": "",
    "website": "",
    "opening_hours": "",
    "stars": "",
    "wheelchair": "",
    "osm_id": 664620202,
    "osm_type": "way",
    "scraped_at": "2026-03-06T09:49:27.817795"
  },
  {
    "category": "hotels",
    "name": "Holiday Inn",
    "type": "hotel",
    "cuisine": "",
    "address": "Caton Road, Lancaster, LA1 3RA",
    "postcode": "LA1 3RA",
    "town": "Lancaster",
    "latitude": 54.0711333,
    "longitude": -2.7772507,
    "phone": "+44 871 942 9047",
    "website": "https://www.holidayinn.com/hotels/gb/en/lancaster/xqlcr/hoteldetail",
    "opening_hours": "",
    "stars": "",
    "wheelchair": "",
    "osm_id": 769615789,
    "osm_type": "way",
    "scraped_at": "2026-03-06T09:49:27.817799"
  },
  {
    "category": "hotels",
    "name": "Premier Inn Blackburn Town Centre",
    "type": "hotel",
    "cuisine": "",
    "address": "3, Cathedral Square, Blackburn, BB1 1FB",
    "postcode": "BB1 1FB",
    "town": "Blackburn",
    "latitude": 53.7466545,
    "longitude": -2.4808268,
    "phone": "",
    "website": "https://www.premierinn.com/gb/en/hotels/england/lancashire/blackburn/blackburn-town-centre.html",
    "opening_hours": "",
    "stars": "",
    "wheelchair": "",
    "osm_id": 884204938,
    "osm_type": "way",
    "scraped_at": "2026-03-06T09:49:27.817801"
  },
  {
    "category": "hotels",
    "name": "Hampton by Hilton Blackburn",
    "type": "hotel",
    "cuisine": "",
    "address": "2, Frontier Avenue, Blackburn, BB1 3AL",
    "postcode": "BB1 3AL",
    "town": "Blackburn",
    "latitude": 53.7538177,
    "longitude": -2.442846,
    "phone": "+44 1254 946060",
    "website": "https://www.hilton.com/en/hotels/manubhx-hampton-blackburn/",
    "opening_hours": "",
    "stars": "3",
    "wheelchair": "",
    "osm_id": 898466264,
    "osm_type": "way",
    "scraped_at": "2026-03-06T09:49:27.817803"
  },
  {
    "category": "hotels",
    "name": "The Sanderling",
    "type": "hotel",
    "cuisine": "",
    "address": "20, West End Road, Morecambe, LA4 4DL",
    "postcode": "LA4 4DL",
    "town": "Morecambe",
    "latitude": 54.067433,
    "longitude": -2.8773454,
    "phone": "",
    "website": "https://thesanderling.co.uk/",
    "opening_hours": "",
    "stars": "",
    "wheelchair": "",
    "osm_id": 938415607,
    "osm_type": "way",
    "scraped_at": "2026-03-06T09:49:27.817804"
  },
  {
    "category": "hotels",
    "name": "Glenthorn Hotel",
    "type": "hotel",
    "cuisine": "",
    "address": "24-26, West End Road, Morecambe, LA4 4DL",
    "postcode": "LA4 4DL",
    "town": "Morecambe",
    "latitude": 54.0673812,
    "longitude": -2.8771191,
    "phone": "",
    "website": "https://www.glenthornhotel.co.uk/",
    "opening_hours": "",
    "stars": "",
    "wheelchair": "",
    "osm_id": 938415609,
    "osm_type": "way",
    "scraped_at": "2026-03-06T09:49:27.817806"
  },
  {
    "category": "hotels",
    "name": "The Sea Crest",
    "type": "hotel",
    "cuisine": "",
    "address": "9;11;13, West End Road, Morecambe, LA4 4DJ",
    "postcode": "LA4 4DJ",
    "town": "Morecambe",
    "latitude": 54.0671918,
    "longitude": -2.8782024,
    "phone": "",
    "website": "https://www.seacrest-hotel.co.uk/",
    "opening_hours": "",
    "stars": "",
    "wheelchair": "",
    "osm_id": 938415622,
    "osm_type": "way",
    "scraped_at": "2026-03-06T09:49:27.817808"
  },
  {
    "category": "hotels",
    "name": "The Trevelyan",
    "type": "guest_house",
    "cuisine": "",
    "address": "27, West End Road, Morecambe, LA4 4DJ",
    "postcode": "LA4 4DJ",
    "town": "Morecambe",
    "latitude": 54.067046,
    "longitude": -2.8774856,
    "phone": "",
    "website": "http://thetrevelyan.co.uk/",
    "opening_hours": "",
    "stars": "",
    "wheelchair": "",
    "osm_id": 938415628,
    "osm_type": "way",
    "scraped_at": "2026-03-06T09:49:27.817809"
  },
  {
    "category": "hotels",
    "name": "The Sea Lynn",
    "type": "guest_house",
    "cuisine": "",
    "address": "29, West End Road, Morecambe, LA4 4DJ",
    "postcode": "LA4 4DJ",
    "town": "Morecambe",
    "latitude": 54.0670361,
    "longitude": -2.8774147,
    "phone": "",
    "website": "https://www.thesealynn.com/",
    "opening_hours": "",
    "stars": "",
    "wheelchair": "",
    "osm_id": 938415629,
    "osm_type": "way",
    "scraped_at": "2026-03-06T09:49:27.817812"
  },
  {
    "category": "hotels",
    "name": "Pilkingtons Bed & Breakfast",
    "type": "guest_house",
    "cuisine": "",
    "address": "135, Blackburn Road, Accrington, BB5 0AA",
    "postcode": "BB5 0AA",
    "town": "Accrington",
    "latitude": 53.753513,
    "longitude": -2.3697424,
    "phone": "+44 1254 237032",
    "website": "",
    "opening_hours": "",
    "stars": "",
    "wheelchair": "",
    "osm_id": 1039445590,
    "osm_type": "way",
    "scraped_at": "2026-03-06T09:49:27.817814"
  },
  {
    "category": "hotels",
    "name": "Heskin Farm B&B",
    "type": "guest_house",
    "cuisine": "",
    "address": "School Lane, L40 4AF",
    "postcode": "L40 4AF",
    "town": "",
    "latitude": 53.6012724,
    "longitude": -2.8322316,
    "phone": "+441704 894437",
    "website": "http://www.heskinfarm.co.uk/",
    "opening_hours": "",
    "stars": "",
    "wheelchair": "",
    "osm_id": 1058334478,
    "osm_type": "way",
    "scraped_at": "2026-03-06T09:49:27.817816"
  },
  {
    "category": "hotels",
    "name": "Travelodge Rochdale",
    "type": "hotel",
    "cuisine": "",
    "address": "Sandbrook Way, Rochdale, OL11 1RY",
    "postcode": "OL11 1RY",
    "town": "Rochdale",
    "latitude": 53.6009899,
    "longitude": -2.1645844,
    "phone": "",
    "website": "https://www.travelodge.co.uk/hotels/678/Rochdale-hotel",
    "opening_hours": "",
    "stars": "",
    "wheelchair": "",
    "osm_id": 1065906623,
    "osm_type": "way",
    "scraped_at": "2026-03-06T09:49:27.817820"
  },
  {
    "category": "hotels",
    "name": "Premier Inn",
    "type": "hotel",
    "cuisine": "",
    "address": "Newhey Road",
    "postcode": "",
    "town": "",
    "latitude": 53.6031239,
    "longitude": -2.1047323,
    "phone": "",
    "website": "https://www.premierinn.com/gb/en/hotels/england/greater-manchester/rochdale/rochdale.html",
    "opening_hours": "",
    "stars": "",
    "wheelchair": "yes",
    "osm_id": 1126664457,
    "osm_type": "way",
    "scraped_at": "2026-03-06T09:49:27.817822"
  },
  {
    "category": "hotels",
    "name": "Hampton",
    "type": "hotel",
    "cuisine": "",
    "address": "New Baillie Street, Rochdale, OL16 1EU",
    "postcode": "OL16 1EU",
    "town": "Rochdale",
    "latitude": 53.6187359,
    "longitude": -2.1542337,
    "phone": "+44 1706 801800",
    "website": "https://www.hilton.com/en/hotels/manrdhx-hampton-rochdale/",
    "opening_hours": "",
    "stars": "",
    "wheelchair": "",
    "osm_id": 1211590471,
    "osm_type": "way",
    "scraped_at": "2026-03-06T09:49:27.817823"
  },
  {
    "category": "hotels",
    "name": "Fernhurst Lodge",
    "type": "hotel",
    "cuisine": "",
    "address": "",
    "postcode": "",
    "town": "",
    "latitude": 53.7256011,
    "longitude": -2.4892752,
    "phone": "",
    "website": "",
    "opening_hours": "",
    "stars": "",
    "wheelchair": "",
    "osm_id": 1219283632,
    "osm_type": "way",
    "scraped_at": "2026-03-06T09:49:27.817825"
  },
  {
    "category": "hotels",
    "name": "Green Grove Country House",
    "type": "guest_house",
    "cuisine": "",
    "address": "Bell Busk, Skipton, BD23 4DU",
    "postcode": "BD23 4DU",
    "town": "Skipton",
    "latitude": 53.9990602,
    "longitude": -2.1496776,
    "phone": "",
    "website": "https://bedandbreakfastmalhamdale.co.uk/",
    "opening_hours": "",
    "stars": "",
    "wheelchair": "",
    "osm_id": 1267999622,
    "osm_type": "way",
    "scraped_at": "2026-03-06T09:49:27.817827"
  },
  {
    "category": "hotels",
    "name": "Slyne Lodge",
    "type": "pub",
    "cuisine": "",
    "address": "92, Main Road, Slyne, LA2 6AZ",
    "postcode": "LA2 6AZ",
    "town": "Slyne",
    "latitude": 54.0857282,
    "longitude": -2.8007973,
    "phone": "",
    "website": "",
    "opening_hours": "",
    "stars": "",
    "wheelchair": "yes",
    "osm_id": 1346079519,
    "osm_type": "way",
    "scraped_at": "2026-03-06T09:49:27.817828"
  },
  {
    "category": "hotels",
    "name": "Falcon Manor Hotel",
    "type": "hotel",
    "cuisine": "",
    "address": "Settle, BD24 9BD",
    "postcode": "BD24 9BD",
    "town": "Settle",
    "latitude": 54.0629502,
    "longitude": -2.2813424,
    "phone": "",
    "website": "https://www.jamesplaces.com/falcon-manor/",
    "opening_hours": "",
    "stars": "",
    "wheelchair": "",
    "osm_id": 1346764930,
    "osm_type": "way",
    "scraped_at": "2026-03-06T09:49:27.817830"
  },
  {
    "category": "hotels",
    "name": "The Guest House Worsthorne",
    "type": "guest_house",
    "cuisine": "",
    "address": "13, Church Square, Burnley, BB10 3NH",
    "postcode": "BB10 3NH",
    "town": "Burnley",
    "latitude": 53.7875378,
    "longitude": -2.1907212,
    "phone": "+447779270398",
    "website": "https://www.theguesthouseworsthorne.com/",
    "opening_hours": "",
    "stars": "",
    "wheelchair": "",
    "osm_id": 1433116372,
    "osm_type": "way",
    "scraped_at": "2026-03-06T09:49:27.817832"
  }
]