[
  {
    "category": "pubs",
    "name": "Yarrow Bridge",
    "type": "pub",
    "cuisine": "international",
    "address": "Bolton Road, Chorley, PR7 4AB",
    "postcode": "PR7 4AB",
    "town": "Chorley",
    "latitude": 53.6398403,
    "longitude": -2.61782,
    "phone": "",
    "website": "https://www.greeneking.co.uk/pubs/lancashire/yarrow-bridge",
    "opening_hours": "",
    "stars": "",
    "wheelchair": "limited",
    "osm_id": 22533343,
    "osm_type": "node",
    "scraped_at": "2026-03-06T09:52:14.573421"
  },
  {
    "category": "pubs",
    "name": "The Talbot",
    "type": "pub",
    "cuisine": "",
    "address": "",
    "postcode": "",
    "town": "",
    "latitude": 53.6605564,
    "longitude": -2.6679403,
    "phone": "",
    "website": "",
    "opening_hours": "",
    "stars": "",
    "wheelchair": "",
    "osm_id": 22533849,
    "osm_type": "node",
    "scraped_at": "2026-03-06T09:52:14.573440"
  },
  {
    "category": "pubs",
    "name": "Traveller's Rest",
    "type": "pub",
    "cuisine": "",
    "address": "Dawber's Lane, Chorley, PR7 6EG",
    "postcode": "PR7 6EG",
    "town": "Chorley",
    "latitude": 53.6630889,
    "longitude": -2.7116301,
    "phone": "",
    "website": "",
    "opening_hours": "",
    "stars": "",
    "wheelchair": "",
    "osm_id": 22534055,
    "osm_type": "node",
    "scraped_at": "2026-03-06T09:52:14.573445"
  },
  {
    "category": "pubs",
    "name": "The Kettledrum Inn",
    "type": "pub",
    "cuisine": "",
    "address": "",
    "postcode": "",
    "town": "",
    "latitude": 53.7716214,
    "longitude": -2.192659,
    "phone": "",
    "website": "",
    "opening_hours": "",
    "stars": "",
    "wheelchair": "",
    "osm_id": 26941657,
    "osm_type": "node",
    "scraped_at": "2026-03-06T09:52:14.573448"
  },
  {
    "category": "pubs",
    "name": "Navigation",
    "type": "pub",
    "cuisine": "",
    "address": "2, Canal Street, Blackburn, BB2 4DJ",
    "postcode": "BB2 4DJ",
    "town": "Blackburn",
    "latitude": 53.7323844,
    "longitude": -2.5035211,
    "phone": "",
    "website": "",
    "opening_hours": "",
    "stars": "",
    "wheelchair": "limited",
    "osm_id": 28892511,
    "osm_type": "node",
    "scraped_at": "2026-03-06T09:52:14.573457"
  },
  {
    "category": "pubs",
    "name": "Stage Door",
    "type": "pub",
    "cuisine": "",
    "address": "",
    "postcode": "",
    "town": "",
    "latitude": 53.746667,
    "longitude": -2.4837023,
    "phone": "",
    "website": "",
    "opening_hours": "",
    "stars": "",
    "wheelchair": "",
    "osm_id": 28892622,
    "osm_type": "node",
    "scraped_at": "2026-03-06T09:52:14.573459"
  },
  {
    "category": "pubs",
    "name": "Feildens Arms",
    "type": "pub",
    "cuisine": "",
    "address": "673, Preston Old Road, Blackburn, BB2 5ER",
    "postcode": "BB2 5ER",
    "town": "Blackburn",
    "latitude": 53.726337,
    "longitude": -2.5389852,
    "phone": "",
    "website": "",
    "opening_hours": "",
    "stars": "",
    "wheelchair": "",
    "osm_id": 29162658,
    "osm_type": "node",
    "scraped_at": "2026-03-06T09:52:14.573462"
  },
  {
    "category": "pubs",
    "name": "The Toll Bar",
    "type": "pub",
    "cuisine": "",
    "address": "158, Accrington Road, Blackburn, BB1 2AH",
    "postcode": "BB1 2AH",
    "town": "Blackburn",
    "latitude": 53.7472057,
    "longitude": -2.4509806,
    "phone": "",
    "website": "",
    "opening_hours": "",
    "stars": "",
    "wheelchair": "",
    "osm_id": 30053908,
    "osm_type": "node",
    "scraped_at": "2026-03-06T09:52:14.573464"
  },
  {
    "category": "pubs",
    "name": "The Roebuck",
    "type": "pub",
    "cuisine": "",
    "address": "Waterhouse Green, Chorley, PR6 7LA",
    "postcode": "PR6 7LA",
    "town": "Chorley",
    "latitude": 53.6854025,
    "longitude": -2.6386499,
    "phone": "",
    "website": "",
    "opening_hours": "",
    "stars": "",
    "wheelchair": "",
    "osm_id": 30119854,
    "osm_type": "node",
    "scraped_at": "2026-03-06T09:52:14.573467"
  },
  {
    "category": "pubs",
    "name": "Halfway House",
    "type": "pub",
    "cuisine": "",
    "address": "470, Preston Road, Chorley, PR6 7JB",
    "postcode": "PR6 7JB",
    "town": "Chorley",
    "latitude": 53.7016579,
    "longitude": -2.639291,
    "phone": "",
    "website": "",
    "opening_hours": "",
    "stars": "",
    "wheelchair": "",
    "osm_id": 30136487,
    "osm_type": "node",
    "scraped_at": "2026-03-06T09:52:14.573469"
  },
  {
    "category": "pubs",
    "name": "Yew Tree",
    "type": "pub",
    "cuisine": "",
    "address": "100, Victoria Road, Preston, PR5 4AU",
    "postcode": "PR5 4AU",
    "town": "Preston",
    "latitude": 53.7497036,
    "longitude": -2.6747952,
    "phone": "",
    "website": "",
    "opening_hours": "",
    "stars": "",
    "wheelchair": "",
    "osm_id": 30399974,
    "osm_type": "node",
    "scraped_at": "2026-03-06T09:52:14.573471"
  },
  {
    "category": "pubs",
    "name": "The Bear's Paw",
    "type": "pub",
    "cuisine": "",
    "address": "42, Church Street, Preston, PR1 3DH",
    "postcode": "PR1 3DH",
    "town": "Preston",
    "latitude": 53.759534,
    "longitude": -2.6942647,
    "phone": "",
    "website": "",
    "opening_hours": "",
    "stars": "",
    "wheelchair": "",
    "osm_id": 30770939,
    "osm_type": "node",
    "scraped_at": "2026-03-06T09:52:14.573473"
  },
  {
    "category": "pubs",
    "name": "Hogarths",
    "type": "pub",
    "cuisine": "",
    "address": "140-140a, Church Street, Preston, PR1 3BU",
    "postcode": "PR1 3BU",
    "town": "Preston",
    "latitude": 53.7584235,
    "longitude": -2.6968691,
    "phone": "",
    "website": "",
    "opening_hours": "",
    "stars": "",
    "wheelchair": "limited",
    "osm_id": 30770944,
    "osm_type": "node",
    "scraped_at": "2026-03-06T09:52:14.573475"
  },
  {
    "category": "pubs",
    "name": "The Old Bull / Harry's Bar",
    "type": "pub",
    "cuisine": "",
    "address": "141, Church Street, Preston, PR1 3BU",
    "postcode": "PR1 3BU",
    "town": "Preston",
    "latitude": 53.7583664,
    "longitude": -2.697056,
    "phone": "",
    "website": "",
    "opening_hours": "",
    "stars": "",
    "wheelchair": "",
    "osm_id": 30770945,
    "osm_type": "node",
    "scraped_at": "2026-03-06T09:52:14.573478"
  },
  {
    "category": "pubs",
    "name": "The Grey Friar",
    "type": "pub",
    "cuisine": "",
    "address": "144, Friargate, Preston, PR1 2EJ",
    "postcode": "PR1 2EJ",
    "town": "Preston",
    "latitude": 53.760335,
    "longitude": -2.702917,
    "phone": "",
    "website": "https://www.jdwetherspoon.com/pubs/all-pubs/england/lancashire/the-grey-friar-preston",
    "opening_hours": "",
    "stars": "",
    "wheelchair": "limited",
    "osm_id": 32532722,
    "osm_type": "node",
    "scraped_at": "2026-03-06T09:52:14.573482"
  },
  {
    "category": "pubs",
    "name": "The Woodsman",
    "type": "pub",
    "cuisine": "",
    "address": "Lancaster Lane, Leyland, PR25 5RY",
    "postcode": "PR25 5RY",
    "town": "Leyland",
    "latitude": 53.6961439,
    "longitude": -2.672473,
    "phone": "",
    "website": "",
    "opening_hours": "",
    "stars": "",
    "wheelchair": "",
    "osm_id": 33856152,
    "osm_type": "node",
    "scraped_at": "2026-03-06T09:52:14.573484"
  },
  {
    "category": "pubs",
    "name": "Swan with Two Necks",
    "type": "pub",
    "cuisine": "",
    "address": "",
    "postcode": "",
    "town": "",
    "latitude": 53.8522102,
    "longitude": -2.3728649,
    "phone": "",
    "website": "",
    "opening_hours": "",
    "stars": "",
    "wheelchair": "",
    "osm_id": 34097024,
    "osm_type": "node",
    "scraped_at": "2026-03-06T09:52:14.573486"
  },
  {
    "category": "pubs",
    "name": "The White Bull Hotel",
    "type": "pub",
    "cuisine": "",
    "address": "135, Market Street, Chorley, PR7 2SG",
    "postcode": "PR7 2SG",
    "town": "Chorley",
    "latitude": 53.6504197,
    "longitude": -2.631326,
    "phone": "",
    "website": "",
    "opening_hours": "",
    "stars": "",
    "wheelchair": "",
    "osm_id": 36662926,
    "osm_type": "node",
    "scraped_at": "2026-03-06T09:52:14.573488"
  },
  {
    "category": "pubs",
    "name": "The Last Orders Inn",
    "type": "pub",
    "cuisine": "",
    "address": "113, Market Street, Chorley, PR7 2SQ",
    "postcode": "PR7 2SQ",
    "town": "Chorley",
    "latitude": 53.6511653,
    "longitude": -2.6315339,
    "phone": "",
    "website": "",
    "opening_hours": "",
    "stars": "",
    "wheelchair": "",
    "osm_id": 36662927,
    "osm_type": "node",
    "scraped_at": "2026-03-06T09:52:14.573502"
  },
  {
    "category": "pubs",
    "name": "The Lion",
    "type": "pub",
    "cuisine": "",
    "address": "29, Wensley Road, Blackburn, BB2 1PX",
    "postcode": "BB2 1PX",
    "town": "Blackburn",
    "latitude": 53.7456972,
    "longitude": -2.4982309,
    "phone": "",
    "website": "",
    "opening_hours": "",
    "stars": "",
    "wheelchair": "",
    "osm_id": 36677957,
    "osm_type": "node",
    "scraped_at": "2026-03-06T09:52:14.573504"
  },
  {
    "category": "pubs",
    "name": "The Wishing Well at Tardy Gate",
    "type": "pub",
    "cuisine": "",
    "address": "",
    "postcode": "",
    "town": "",
    "latitude": 53.72684,
    "longitude": -2.6931123,
    "phone": "",
    "website": "",
    "opening_hours": "",
    "stars": "",
    "wheelchair": "",
    "osm_id": 38467658,
    "osm_type": "node",
    "scraped_at": "2026-03-06T09:52:14.573506"
  },
  {
    "category": "pubs",
    "name": "The Black Bull",
    "type": "pub",
    "cuisine": "",
    "address": "83, Pope Lane, Preston, PR1 9BA",
    "postcode": "PR1 9BA",
    "town": "Preston",
    "latitude": 53.7370025,
    "longitude": -2.7202637,
    "phone": "",
    "website": "",
    "opening_hours": "",
    "stars": "",
    "wheelchair": "",
    "osm_id": 38467839,
    "osm_type": "node",
    "scraped_at": "2026-03-06T09:52:14.573508"
  },
  {
    "category": "pubs",
    "name": "Pear Tree",
    "type": "pub",
    "cuisine": "",
    "address": "155, Leyland Road, Preston, PR1 9QB",
    "postcode": "PR1 9QB",
    "town": "Preston",
    "latitude": 53.73999,
    "longitude": -2.7069899,
    "phone": "",
    "website": "",
    "opening_hours": "",
    "stars": "",
    "wheelchair": "",
    "osm_id": 38467852,
    "osm_type": "node",
    "scraped_at": "2026-03-06T09:52:14.573510"
  },
  {
    "category": "pubs",
    "name": "Old Black Bull",
    "type": "pub",
    "cuisine": "",
    "address": "35-36, Friargate, Preston, PR1 2AT",
    "postcode": "PR1 2AT",
    "town": "Preston",
    "latitude": 53.7601101,
    "longitude": -2.7032353,
    "phone": "",
    "website": "",
    "opening_hours": "",
    "stars": "",
    "wheelchair": "",
    "osm_id": 40951424,
    "osm_type": "node",
    "scraped_at": "2026-03-06T09:52:14.573511"
  },
  {
    "category": "pubs",
    "name": "Stanley Arms",
    "type": "pub",
    "cuisine": "",
    "address": "24, Lancaster Road, Preston, PR1 1DA",
    "postcode": "PR1 1DA",
    "town": "Preston",
    "latitude": 53.7592021,
    "longitude": -2.6975955,
    "phone": "+44 1772 252001",
    "website": "https://www.stanleyarmspreston.co.uk/",
    "opening_hours": "Su-We 11:30-23:15; Th 11:30-01:00; Fr 11:30-02:00; Sa 11:30-03:00",
    "stars": "",
    "wheelchair": "",
    "osm_id": 40951431,
    "osm_type": "node",
    "scraped_at": "2026-03-06T09:52:14.573517"
  },
  {
    "category": "pubs",
    "name": "Lancaster Gate",
    "type": "pub",
    "cuisine": "",
    "address": "92, Lancaster Road, Preston, PR1 1DD",
    "postcode": "PR1 1DD",
    "town": "Preston",
    "latitude": 53.7608903,
    "longitude": -2.6985122,
    "phone": "",
    "website": "",
    "opening_hours": "",
    "stars": "",
    "wheelchair": "",
    "osm_id": 40951434,
    "osm_type": "node",
    "scraped_at": "2026-03-06T09:52:14.573519"
  },
  {
    "category": "pubs",
    "name": "Bee Hive",
    "type": "pub",
    "cuisine": "",
    "address": "426, Preston Old Road, Blackburn, BB2 5LP",
    "postcode": "BB2 5LP",
    "town": "Blackburn",
    "latitude": 53.7325472,
    "longitude": -2.520892,
    "phone": "",
    "website": "",
    "opening_hours": "",
    "stars": "",
    "wheelchair": "",
    "osm_id": 41367029,
    "osm_type": "node",
    "scraped_at": "2026-03-06T09:52:14.573521"
  },
  {
    "category": "pubs",
    "name": "The Station",
    "type": "pub",
    "cuisine": "",
    "address": "391, Preston Old Road, Blackburn, BB2 5LW",
    "postcode": "BB2 5LW",
    "town": "Blackburn",
    "latitude": 53.7328065,
    "longitude": -2.5199095,
    "phone": "",
    "website": "",
    "opening_hours": "",
    "stars": "",
    "wheelchair": "",
    "osm_id": 41367038,
    "osm_type": "node",
    "scraped_at": "2026-03-06T09:52:14.573523"
  },
  {
    "category": "pubs",
    "name": "New Britannia Inn",
    "type": "pub",
    "cuisine": "",
    "address": "6, Heatley Street, Preston, PR1 2XB",
    "postcode": "PR1 2XB",
    "town": "Preston",
    "latitude": 53.7605033,
    "longitude": -2.7044337,
    "phone": "",
    "website": "https://www.craftunionpubs.com/new-britannia-preston",
    "opening_hours": "",
    "stars": "",
    "wheelchair": "",
    "osm_id": 43456143,
    "osm_type": "node",
    "scraped_at": "2026-03-06T09:52:14.573526"
  },
  {
    "category": "pubs",
    "name": "Bulls Head",
    "type": "pub",
    "cuisine": "",
    "address": "97-99, Redlam, Blackburn, BB2 1UN",
    "postcode": "BB2 1UN",
    "town": "Blackburn",
    "latitude": 53.7423074,
    "longitude": -2.5037268,
    "phone": "",
    "website": "",
    "opening_hours": "",
    "stars": "",
    "wheelchair": "",
    "osm_id": 46815864,
    "osm_type": "node",
    "scraped_at": "2026-03-06T09:52:14.573528"
  },
  {
    "category": "pubs",
    "name": "The Station",
    "type": "pub",
    "cuisine": "",
    "address": "11, Butler Street, Preston, PR1 8BN",
    "postcode": "PR1 8BN",
    "town": "Preston",
    "latitude": 53.756882,
    "longitude": -2.7064045,
    "phone": "+44 1772 737 164",
    "website": "https://blindtigerinns.co.uk/pubs/the-station-preston/",
    "opening_hours": "",
    "stars": "",
    "wheelchair": "",
    "osm_id": 51496731,
    "osm_type": "node",
    "scraped_at": "2026-03-06T09:52:14.573530"
  },
  {
    "category": "pubs",
    "name": "Hoghton Arms",
    "type": "pub",
    "cuisine": "",
    "address": "Chorley Road, Chorley, PR6 8BL",
    "postcode": "PR6 8BL",
    "town": "Chorley",
    "latitude": 53.7138945,
    "longitude": -2.5632713,
    "phone": "",
    "website": "",
    "opening_hours": "",
    "stars": "",
    "wheelchair": "yes",
    "osm_id": 53470890,
    "osm_type": "node",
    "scraped_at": "2026-03-06T09:52:14.573532"
  },
  {
    "category": "pubs",
    "name": "Duke of York",
    "type": "pub",
    "cuisine": "",
    "address": "",
    "postcode": "",
    "town": "",
    "latitude": 53.801519,
    "longitude": -2.2359315,
    "phone": "",
    "website": "",
    "opening_hours": "",
    "stars": "",
    "wheelchair": "",
    "osm_id": 154914789,
    "osm_type": "node",
    "scraped_at": "2026-03-06T09:52:14.573534"
  },
  {
    "category": "pubs",
    "name": "The Gallows",
    "type": "pub",
    "cuisine": "",
    "address": "Rochdale",
    "postcode": "",
    "town": "Rochdale",
    "latitude": 53.6142687,
    "longitude": -2.1086345,
    "phone": "",
    "website": "",
    "opening_hours": "",
    "stars": "",
    "wheelchair": "limited",
    "osm_id": 243082188,
    "osm_type": "node",
    "scraped_at": "2026-03-06T09:52:14.573536"
  },
  {
    "category": "pubs",
    "name": "Hesketh's Arms",
    "type": "pub",
    "cuisine": "",
    "address": "421, New Hall Lane, Preston, PR1 4SY",
    "postcode": "PR1 4SY",
    "town": "Preston",
    "latitude": 53.7659031,
    "longitude": -2.6637973,
    "phone": "",
    "website": "",
    "opening_hours": "",
    "stars": "",
    "wheelchair": "",
    "osm_id": 243751901,
    "osm_type": "node",
    "scraped_at": "2026-03-06T09:52:14.573538"
  },
  {
    "category": "pubs",
    "name": "The Old Vic",
    "type": "pub",
    "cuisine": "",
    "address": "79, Fishergate, Preston, PR1 2NJ",
    "postcode": "PR1 2NJ",
    "town": "Preston",
    "latitude": 53.757416,
    "longitude": -2.7065535,
    "phone": "+44 1772828519",
    "website": "https://www.theoldvic-preston.foodanddrinksites.co.uk",
    "opening_hours": "",
    "stars": "",
    "wheelchair": "",
    "osm_id": 245029230,
    "osm_type": "node",
    "scraped_at": "2026-03-06T09:52:14.573540"
  },
  {
    "category": "pubs",
    "name": "The Market Tavern",
    "type": "pub",
    "cuisine": "",
    "address": "33-35, Market Street, Preston, PR1 2ES",
    "postcode": "PR1 2ES",
    "town": "Preston",
    "latitude": 53.7604341,
    "longitude": -2.7007136,
    "phone": "",
    "website": "",
    "opening_hours": "",
    "stars": "",
    "wheelchair": "",
    "osm_id": 245029258,
    "osm_type": "node",
    "scraped_at": "2026-03-06T09:52:14.573542"
  },
  {
    "category": "pubs",
    "name": "Hare and Hounds",
    "type": "pub",
    "cuisine": "",
    "address": "400, Bolton Road West, Bury, BL0 9RY",
    "postcode": "BL0 9RY",
    "town": "Bury",
    "latitude": 53.6339509,
    "longitude": -2.3345475,
    "phone": "",
    "website": "https://www.greeneking.co.uk/pubs/lancashire/hare-and-hounds",
    "opening_hours": "",
    "stars": "",
    "wheelchair": "",
    "osm_id": 256400241,
    "osm_type": "node",
    "scraped_at": "2026-03-06T09:52:14.573544"
  },
  {
    "category": "pubs",
    "name": "Robin Hood",
    "type": "pub",
    "cuisine": "",
    "address": "19, Market Street, Bury, BL8 4AA",
    "postcode": "BL8 4AA",
    "town": "Bury",
    "latitude": 53.6146423,
    "longitude": -2.3408244,
    "phone": "",
    "website": "https://www.greeneking.co.uk/pubs/greater-manchester/robin-hood",
    "opening_hours": "",
    "stars": "",
    "wheelchair": "",
    "osm_id": 256403470,
    "osm_type": "node",
    "scraped_at": "2026-03-06T09:52:14.573545"
  },
  {
    "category": "pubs",
    "name": "The Brook",
    "type": "pub",
    "cuisine": "",
    "address": "326-328, Bolton Road West, Bury, BL0 9QY",
    "postcode": "BL0 9QY",
    "town": "Bury",
    "latitude": 53.6358842,
    "longitude": -2.331632,
    "phone": "",
    "website": "",
    "opening_hours": "",
    "stars": "",
    "wheelchair": "",
    "osm_id": 256404053,
    "osm_type": "node",
    "scraped_at": "2026-03-06T09:52:14.573547"
  },
  {
    "category": "pubs",
    "name": "Freeholders Arms",
    "type": "pub",
    "cuisine": "",
    "address": "47-49, Ullswater Road, Lancaster, LA1 3PS",
    "postcode": "LA1 3PS",
    "town": "Lancaster",
    "latitude": 54.0499141,
    "longitude": -2.7904743,
    "phone": "",
    "website": "",
    "opening_hours": "Mo-We 15:00-22:30; Th 16:00-22:30; Fr 15:00-23:30; Sa 10:00-24:00; Su 12:00-22:30",
    "stars": "",
    "wheelchair": "",
    "osm_id": 256503664,
    "osm_type": "node",
    "scraped_at": "2026-03-06T09:52:14.573549"
  },
  {
    "category": "pubs",
    "name": "Old Dungeon",
    "type": "pub",
    "cuisine": "",
    "address": "",
    "postcode": "",
    "town": "",
    "latitude": 53.6150932,
    "longitude": -2.3427802,
    "phone": "",
    "website": "",
    "opening_hours": "",
    "stars": "",
    "wheelchair": "",
    "osm_id": 259185265,
    "osm_type": "node",
    "scraped_at": "2026-03-06T09:52:14.573551"
  },
  {
    "category": "pubs",
    "name": "The Railway",
    "type": "pub",
    "cuisine": "",
    "address": "2, Bridge Street, Bury, BL0 9AQ",
    "postcode": "BL0 9AQ",
    "town": "Bury",
    "latitude": 53.6478384,
    "longitude": -2.3151943,
    "phone": "",
    "website": "",
    "opening_hours": "",
    "stars": "",
    "wheelchair": "",
    "osm_id": 259185979,
    "osm_type": "node",
    "scraped_at": "2026-03-06T09:52:14.573553"
  },
  {
    "category": "pubs",
    "name": "Ye Horns Inn",
    "type": "pub",
    "cuisine": "",
    "address": "Horns Lane, Preston, PR3 2FJ",
    "postcode": "PR3 2FJ",
    "town": "Preston",
    "latitude": 53.8470627,
    "longitude": -2.647314,
    "phone": "",
    "website": "",
    "opening_hours": "",
    "stars": "",
    "wheelchair": "",
    "osm_id": 262864517,
    "osm_type": "node",
    "scraped_at": "2026-03-06T09:52:14.573555"
  },
  {
    "category": "pubs",
    "name": "Lane Ends Hotel",
    "type": "pub",
    "cuisine": "",
    "address": "442, Blackpool Road, Preston, PR2 1HX",
    "postcode": "PR2 1HX",
    "town": "Preston",
    "latitude": 53.7709686,
    "longitude": -2.7287865,
    "phone": "",
    "website": "https://www.greeneking.co.uk/pubs/lancashire/lane-ends",
    "opening_hours": "",
    "stars": "",
    "wheelchair": "",
    "osm_id": 263524000,
    "osm_type": "node",
    "scraped_at": "2026-03-06T09:52:14.573558"
  },
  {
    "category": "pubs",
    "name": "Hand and Dagger",
    "type": "pub",
    "cuisine": "",
    "address": "",
    "postcode": "",
    "town": "",
    "latitude": 53.7910374,
    "longitude": -2.8151109,
    "phone": "",
    "website": "",
    "opening_hours": "",
    "stars": "",
    "wheelchair": "",
    "osm_id": 263709632,
    "osm_type": "node",
    "scraped_at": "2026-03-06T09:52:14.573560"
  },
  {
    "category": "pubs",
    "name": "Owls Nest",
    "type": "pub",
    "cuisine": "",
    "address": "Bare Lane, Morecambe, LA4 6DE",
    "postcode": "LA4 6DE",
    "town": "Morecambe",
    "latitude": 54.0781842,
    "longitude": -2.8381846,
    "phone": "",
    "website": "",
    "opening_hours": "",
    "stars": "",
    "wheelchair": "",
    "osm_id": 276791544,
    "osm_type": "node",
    "scraped_at": "2026-03-06T09:52:14.573562"
  },
  {
    "category": "pubs",
    "name": "Anderton Arms",
    "type": "pub",
    "cuisine": "",
    "address": "Longsands Lane, Preston, PR2 9PS",
    "postcode": "PR2 9PS",
    "town": "Preston",
    "latitude": 53.7865689,
    "longitude": -2.6729895,
    "phone": "",
    "website": "https://www.emberinns.co.uk/nationalsearch/northwest/the-anderton-arms-fulwood",
    "opening_hours": "",
    "stars": "",
    "wheelchair": "",
    "osm_id": 287100033,
    "osm_type": "node",
    "scraped_at": "2026-03-06T09:52:14.573564"
  },
  {
    "category": "pubs",
    "name": "Sundial",
    "type": "pub",
    "cuisine": "",
    "address": "",
    "postcode": "",
    "town": "",
    "latitude": 53.6090295,
    "longitude": -2.2920262,
    "phone": "",
    "website": "",
    "opening_hours": "",
    "stars": "",
    "wheelchair": "",
    "osm_id": 291990304,
    "osm_type": "node",
    "scraped_at": "2026-03-06T09:52:14.573566"
  },
  {
    "category": "pubs",
    "name": "Rock Inn",
    "type": "pub",
    "cuisine": "",
    "address": "Tockholes Road, Darwen, BB3 0LU",
    "postcode": "BB3 0LU",
    "town": "Darwen",
    "latitude": 53.7054275,
    "longitude": -2.5118212,
    "phone": "+44 1254 702733",
    "website": "",
    "opening_hours": "",
    "stars": "",
    "wheelchair": "",
    "osm_id": 292479236,
    "osm_type": "node",
    "scraped_at": "2026-03-06T09:52:14.573568"
  },
  {
    "category": "pubs",
    "name": "The Dog Inn",
    "type": "pub",
    "cuisine": "",
    "address": "",
    "postcode": "",
    "town": "",
    "latitude": 53.829789,
    "longitude": -2.599223,
    "phone": "",
    "website": "",
    "opening_hours": "",
    "stars": "",
    "wheelchair": "",
    "osm_id": 307745707,
    "osm_type": "node",
    "scraped_at": "2026-03-06T09:52:14.573569"
  },
  {
    "category": "pubs",
    "name": "The Durham Ox",
    "type": "pub",
    "cuisine": "",
    "address": "25, Berry Lane, PR3 3JA",
    "postcode": "PR3 3JA",
    "town": "",
    "latitude": 53.8305356,
    "longitude": -2.6013348,
    "phone": "+44 1772 783234",
    "website": "",
    "opening_hours": "",
    "stars": "",
    "wheelchair": "",
    "osm_id": 307745715,
    "osm_type": "node",
    "scraped_at": "2026-03-06T09:52:14.573571"
  },
  {
    "category": "pubs",
    "name": "Towneley Arms",
    "type": "pub",
    "cuisine": "",
    "address": "41, Berry Lane, PR3 3JB",
    "postcode": "PR3 3JB",
    "town": "",
    "latitude": 53.8316548,
    "longitude": -2.6038552,
    "phone": "+44 1772 428829",
    "website": "https://blindtigerinns.co.uk/pubs/the-towneley-arms/",
    "opening_hours": "",
    "stars": "",
    "wheelchair": "",
    "osm_id": 307745720,
    "osm_type": "node",
    "scraped_at": "2026-03-06T09:52:14.573573"
  },
  {
    "category": "pubs",
    "name": "Forrest Arms",
    "type": "pub",
    "cuisine": "",
    "address": "2, Derby Road, PR3 3NP",
    "postcode": "PR3 3NP",
    "town": "",
    "latitude": 53.8331669,
    "longitude": -2.6069334,
    "phone": "+44 1772 782610",
    "website": "",
    "opening_hours": "",
    "stars": "",
    "wheelchair": "",
    "osm_id": 307745723,
    "osm_type": "node",
    "scraped_at": "2026-03-06T09:52:14.573575"
  },
  {
    "category": "pubs",
    "name": "Old Oak",
    "type": "pub",
    "cuisine": "",
    "address": "111, Preston Road, PR3 3BA",
    "postcode": "PR3 3BA",
    "town": "",
    "latitude": 53.8228207,
    "longitude": -2.6069709,
    "phone": "+44 1772 783648",
    "website": "https://oldoak.pub/",
    "opening_hours": "",
    "stars": "",
    "wheelchair": "",
    "osm_id": 308298219,
    "osm_type": "node",
    "scraped_at": "2026-03-06T09:52:14.573579"
  },
  {
    "category": "pubs",
    "name": "Trader's Arms",
    "type": "pub",
    "cuisine": "",
    "address": "Mellor Lane, Blackburn, BB2 7EW",
    "postcode": "BB2 7EW",
    "town": "Blackburn",
    "latitude": 53.7743196,
    "longitude": -2.5239177,
    "phone": "",
    "website": "",
    "opening_hours": "",
    "stars": "",
    "wheelchair": "",
    "osm_id": 309632224,
    "osm_type": "node",
    "scraped_at": "2026-03-06T09:52:14.573581"
  },
  {
    "category": "pubs",
    "name": "Spread Eagle",
    "type": "pub",
    "cuisine": "",
    "address": "",
    "postcode": "",
    "town": "",
    "latitude": 53.7747269,
    "longitude": -2.5047107,
    "phone": "",
    "website": "https://www.chefandbrewer.com/pubs/lancashire/spread-eagle",
    "opening_hours": "",
    "stars": "",
    "wheelchair": "",
    "osm_id": 309632662,
    "osm_type": "node",
    "scraped_at": "2026-03-06T09:52:14.573585"
  },
  {
    "category": "pubs",
    "name": "Rising Sun",
    "type": "pub",
    "cuisine": "",
    "address": "797, Whalley New Road, Blackburn, BB1 9BE",
    "postcode": "BB1 9BE",
    "town": "Blackburn",
    "latitude": 53.7793899,
    "longitude": -2.4776552,
    "phone": "",
    "website": "",
    "opening_hours": "",
    "stars": "",
    "wheelchair": "",
    "osm_id": 309633309,
    "osm_type": "node",
    "scraped_at": "2026-03-06T09:52:14.573586"
  },
  {
    "category": "pubs",
    "name": "Wilpshire Hotel",
    "type": "pub",
    "cuisine": "",
    "address": "",
    "postcode": "",
    "town": "",
    "latitude": 53.7870481,
    "longitude": -2.475438,
    "phone": "",
    "website": "https://www.craftunionpubs.com/wilpshire-hotel-blackburn",
    "opening_hours": "",
    "stars": "",
    "wheelchair": "",
    "osm_id": 309633375,
    "osm_type": "node",
    "scraped_at": "2026-03-06T09:52:14.573588"
  },
  {
    "category": "pubs",
    "name": "The Eagle and Child",
    "type": "pub",
    "cuisine": "",
    "address": "30, Church Road, Leyland, PR25 3AA",
    "postcode": "PR25 3AA",
    "town": "Leyland",
    "latitude": 53.6888489,
    "longitude": -2.6947146,
    "phone": "",
    "website": "",
    "opening_hours": "",
    "stars": "",
    "wheelchair": "",
    "osm_id": 318457141,
    "osm_type": "node",
    "scraped_at": "2026-03-06T09:52:14.573590"
  },
  {
    "category": "pubs",
    "name": "Malthouse Farm",
    "type": "pub",
    "cuisine": "",
    "address": "Moss Lane, Chorley, PR6 8AB",
    "postcode": "PR6 8AB",
    "town": "Chorley",
    "latitude": 53.6780648,
    "longitude": -2.6200498,
    "phone": "",
    "website": "https://www.chefandbrewer.com/pubs/lancashire/malthouse-farm",
    "opening_hours": "",
    "stars": "",
    "wheelchair": "",
    "osm_id": 319631396,
    "osm_type": "node",
    "scraped_at": "2026-03-06T09:52:14.573592"
  },
  {
    "category": "pubs",
    "name": "The Sun Inn",
    "type": "pub",
    "cuisine": "",
    "address": "Chipping, PR3 2GD",
    "postcode": "PR3 2GD",
    "town": "Chipping",
    "latitude": 53.8842938,
    "longitude": -2.5757748,
    "phone": "",
    "website": "",
    "opening_hours": "",
    "stars": "",
    "wheelchair": "",
    "osm_id": 321824493,
    "osm_type": "node",
    "scraped_at": "2026-03-06T09:52:14.573594"
  },
  {
    "category": "pubs",
    "name": "White Bull",
    "type": "pub",
    "cuisine": "",
    "address": "",
    "postcode": "",
    "town": "",
    "latitude": 53.8119516,
    "longitude": -2.5323556,
    "phone": "",
    "website": "",
    "opening_hours": "",
    "stars": "",
    "wheelchair": "",
    "osm_id": 322561253,
    "osm_type": "node",
    "scraped_at": "2026-03-06T09:52:14.573596"
  },
  {
    "category": "pubs",
    "name": "Ribchester Arms",
    "type": "pub",
    "cuisine": "",
    "address": "",
    "postcode": "",
    "town": "",
    "latitude": 53.8141726,
    "longitude": -2.5291482,
    "phone": "",
    "website": "",
    "opening_hours": "",
    "stars": "",
    "wheelchair": "",
    "osm_id": 322574790,
    "osm_type": "node",
    "scraped_at": "2026-03-06T09:52:14.573597"
  },
  {
    "category": "pubs",
    "name": "Black Bull",
    "type": "pub",
    "cuisine": "",
    "address": "Church Street, Preston, PR3 3YE",
    "postcode": "PR3 3YE",
    "town": "Preston",
    "latitude": 53.8131114,
    "longitude": -2.5336508,
    "phone": "",
    "website": "",
    "opening_hours": "",
    "stars": "",
    "wheelchair": "",
    "osm_id": 322587969,
    "osm_type": "node",
    "scraped_at": "2026-03-06T09:52:14.573601"
  },
  {
    "category": "pubs",
    "name": "Grapes Inn",
    "type": "pub",
    "cuisine": "",
    "address": "Church Lane, Preston, PR3 2BH",
    "postcode": "PR3 2BH",
    "town": "Preston",
    "latitude": 53.8260191,
    "longitude": -2.6711932,
    "phone": "",
    "website": "",
    "opening_hours": "",
    "stars": "",
    "wheelchair": "",
    "osm_id": 324283537,
    "osm_type": "node",
    "scraped_at": "2026-03-06T09:52:14.573605"
  },
  {
    "category": "pubs",
    "name": "The Woodlands",
    "type": "pub",
    "cuisine": "",
    "address": "",
    "postcode": "",
    "town": "",
    "latitude": 53.7527437,
    "longitude": -2.5114897,
    "phone": "",
    "website": "",
    "opening_hours": "",
    "stars": "",
    "wheelchair": "",
    "osm_id": 324495627,
    "osm_type": "node",
    "scraped_at": "2026-03-06T09:52:14.573607"
  },
  {
    "category": "pubs",
    "name": "The Broughton Inn",
    "type": "pub",
    "cuisine": "",
    "address": "502, Garstang Road, Preston, PR3 5HE",
    "postcode": "PR3 5HE",
    "town": "Preston",
    "latitude": 53.8101085,
    "longitude": -2.7234586,
    "phone": "",
    "website": "https://www.vintageinn.co.uk/restaurants/north-west/thebroughtoninnpreston",
    "opening_hours": "Mo-We 11:30-22:00; Th,Su 11:30-22:30; Fr-Sa 11:30-23:00",
    "stars": "",
    "wheelchair": "",
    "osm_id": 325926359,
    "osm_type": "node",
    "scraped_at": "2026-03-06T09:52:14.573609"
  },
  {
    "category": "pubs",
    "name": "The Arden Inn",
    "type": "pub",
    "cuisine": "",
    "address": "85, Abbey Street, Accrington, BB5 1EH",
    "postcode": "BB5 1EH",
    "town": "Accrington",
    "latitude": 53.7517112,
    "longitude": -2.3610992,
    "phone": "",
    "website": "",
    "opening_hours": "",
    "stars": "",
    "wheelchair": "",
    "osm_id": 347144852,
    "osm_type": "node",
    "scraped_at": "2026-03-06T09:52:14.573610"
  },
  {
    "category": "pubs",
    "name": "Derby Arms",
    "type": "pub",
    "cuisine": "",
    "address": "",
    "postcode": "",
    "town": "",
    "latitude": 53.8483921,
    "longitude": -2.6000624,
    "phone": "",
    "website": "",
    "opening_hours": "",
    "stars": "",
    "wheelchair": "",
    "osm_id": 350071631,
    "osm_type": "node",
    "scraped_at": "2026-03-06T09:52:14.573612"
  },
  {
    "category": "pubs",
    "name": "Barcadium",
    "type": "bar",
    "cuisine": "",
    "address": "15, Fox Street, Preston, PR1 2AB",
    "postcode": "PR1 2AB",
    "town": "Preston",
    "latitude": 53.7583216,
    "longitude": -2.7035421,
    "phone": "",
    "website": "",
    "opening_hours": "",
    "stars": "",
    "wheelchair": "",
    "osm_id": 352652722,
    "osm_type": "node",
    "scraped_at": "2026-03-06T09:52:14.573614"
  },
  {
    "category": "pubs",
    "name": "Kuckoo",
    "type": "bar",
    "cuisine": "",
    "address": "16-17, Fox Street, Preston, PR1 2AB",
    "postcode": "PR1 2AB",
    "town": "Preston",
    "latitude": 53.758236,
    "longitude": -2.7035111,
    "phone": "",
    "website": "",
    "opening_hours": "",
    "stars": "",
    "wheelchair": "",
    "osm_id": 352653420,
    "osm_type": "node",
    "scraped_at": "2026-03-06T09:52:14.573615"
  },
  {
    "category": "pubs",
    "name": "Black Bull",
    "type": "pub",
    "cuisine": "",
    "address": "315, Garstang Road, Preston, PR2 9UP",
    "postcode": "PR2 9UP",
    "town": "Preston",
    "latitude": 53.7912111,
    "longitude": -2.7141815,
    "phone": "",
    "website": "https://www.emberinns.co.uk/nationalsearch/northwest/the-black-bull-fulwood",
    "opening_hours": "",
    "stars": "",
    "wheelchair": "",
    "osm_id": 353080332,
    "osm_type": "node",
    "scraped_at": "2026-03-06T09:52:14.573617"
  },
  {
    "category": "pubs",
    "name": "Royal Garrison",
    "type": "pub",
    "cuisine": "",
    "address": "",
    "postcode": "",
    "town": "",
    "latitude": 53.7776992,
    "longitude": -2.6876807,
    "phone": "",
    "website": "",
    "opening_hours": "",
    "stars": "",
    "wheelchair": "",
    "osm_id": 353080606,
    "osm_type": "node",
    "scraped_at": "2026-03-06T09:52:14.573619"
  },
  {
    "category": "pubs",
    "name": "Sunnyhurst",
    "type": "pub",
    "cuisine": "",
    "address": "9, Sunnyhurst, Darwen, BB3 1JX",
    "postcode": "BB3 1JX",
    "town": "Darwen",
    "latitude": 53.6978742,
    "longitude": -2.4866138,
    "phone": "",
    "website": "",
    "opening_hours": "",
    "stars": "",
    "wheelchair": "",
    "osm_id": 357532096,
    "osm_type": "node",
    "scraped_at": "2026-03-06T09:52:14.573623"
  },
  {
    "category": "pubs",
    "name": "The Golden Lion",
    "type": "pub",
    "cuisine": "",
    "address": "5, Duke Street, Settle, BD24 9DU",
    "postcode": "BD24 9DU",
    "town": "Settle",
    "latitude": 54.068054,
    "longitude": -2.2771058,
    "phone": "",
    "website": "https://goldenlionsettle.co.uk/",
    "opening_hours": "",
    "stars": "",
    "wheelchair": "",
    "osm_id": 370914501,
    "osm_type": "node",
    "scraped_at": "2026-03-06T09:52:14.573625"
  },
  {
    "category": "pubs",
    "name": "The Ancient Oak",
    "type": "pub",
    "cuisine": "",
    "address": "Merry Trees Lane, Preston, PR4 0NZ",
    "postcode": "PR4 0NZ",
    "town": "Preston",
    "latitude": 53.7849742,
    "longitude": -2.7531667,
    "phone": "",
    "website": "https://www.emberinns.co.uk/nationalsearch/northwest/ancient-oak-cottam",
    "opening_hours": "",
    "stars": "",
    "wheelchair": "",
    "osm_id": 385568586,
    "osm_type": "node",
    "scraped_at": "2026-03-06T09:52:14.573627"
  },
  {
    "category": "pubs",
    "name": "Hinds Head",
    "type": "pub",
    "cuisine": "",
    "address": "Preston Road, Chorley, PR7 5HL",
    "postcode": "PR7 5HL",
    "town": "Chorley",
    "latitude": 53.6259735,
    "longitude": -2.6794526,
    "phone": "",
    "website": "",
    "opening_hours": "",
    "stars": "",
    "wheelchair": "",
    "osm_id": 389037338,
    "osm_type": "node",
    "scraped_at": "2026-03-06T09:52:14.573629"
  },
  {
    "category": "pubs",
    "name": "The Western Frontier",
    "type": "pub",
    "cuisine": "",
    "address": "",
    "postcode": "",
    "town": "",
    "latitude": 53.6544845,
    "longitude": -2.8934182,
    "phone": "",
    "website": "http://www.thewesternfrontier.co.uk/",
    "opening_hours": "",
    "stars": "",
    "wheelchair": "",
    "osm_id": 401334260,
    "osm_type": "node",
    "scraped_at": "2026-03-06T09:52:14.573631"
  },
  {
    "category": "pubs",
    "name": "Peel Park Inn",
    "type": "pub",
    "cuisine": "",
    "address": "Turkey Street, Accrington, BB5 6EW",
    "postcode": "BB5 6EW",
    "town": "Accrington",
    "latitude": 53.7587159,
    "longitude": -2.3539851,
    "phone": "",
    "website": "",
    "opening_hours": "",
    "stars": "",
    "wheelchair": "",
    "osm_id": 443070307,
    "osm_type": "node",
    "scraped_at": "2026-03-06T09:52:14.573633"
  },
  {
    "category": "pubs",
    "name": "Royal Oak Hotel",
    "type": "pub",
    "cuisine": "",
    "address": "",
    "postcode": "",
    "town": "",
    "latitude": 53.8999658,
    "longitude": -2.7745392,
    "phone": "+44 1995 603318",
    "website": "https://www.royaloakgarstang.co.uk/",
    "opening_hours": "11:00-23:00",
    "stars": "",
    "wheelchair": "yes",
    "osm_id": 448573853,
    "osm_type": "node",
    "scraped_at": "2026-03-06T09:52:14.573635"
  },
  {
    "category": "pubs",
    "name": "The Crown",
    "type": "pub",
    "cuisine": "",
    "address": "High Street",
    "postcode": "",
    "town": "",
    "latitude": 53.9017469,
    "longitude": -2.7736952,
    "phone": "",
    "website": "",
    "opening_hours": "",
    "stars": "",
    "wheelchair": "yes",
    "osm_id": 448573858,
    "osm_type": "node",
    "scraped_at": "2026-03-06T09:52:14.573637"
  },
  {
    "category": "pubs",
    "name": "Eagle and Child",
    "type": "pub",
    "cuisine": "",
    "address": "3, High Street, PR3 1EA",
    "postcode": "PR3 1EA",
    "town": "",
    "latitude": 53.9007836,
    "longitude": -2.7743212,
    "phone": "+44 1995 601524",
    "website": "",
    "opening_hours": "Su-Th 12:00-23:00, Fr,Sa 12:00-24:00",
    "stars": "",
    "wheelchair": "",
    "osm_id": 448647493,
    "osm_type": "node",
    "scraped_at": "2026-03-06T09:52:14.573639"
  },
  {
    "category": "pubs",
    "name": "The Rose and Crown",
    "type": "pub",
    "cuisine": "",
    "address": "96, Carr Street, Bury, BL0 9EG",
    "postcode": "BL0 9EG",
    "town": "Bury",
    "latitude": 53.6496174,
    "longitude": -2.3229327,
    "phone": "",
    "website": "",
    "opening_hours": "",
    "stars": "",
    "wheelchair": "",
    "osm_id": 464756528,
    "osm_type": "node",
    "scraped_at": "2026-03-06T09:52:14.573641"
  },
  {
    "category": "pubs",
    "name": "The Tempest Arms",
    "type": "pub",
    "cuisine": "",
    "address": "Elslack Lane, Skipton, BD23 3AY",
    "postcode": "BD23 3AY",
    "town": "Skipton",
    "latitude": 53.9443853,
    "longitude": -2.1132685,
    "phone": "",
    "website": "",
    "opening_hours": "",
    "stars": "",
    "wheelchair": "",
    "osm_id": 478526886,
    "osm_type": "node",
    "scraped_at": "2026-03-06T09:52:14.573644"
  },
  {
    "category": "pubs",
    "name": "Sir Tom Finney",
    "type": "pub",
    "cuisine": "",
    "address": "Birch Avenue, Preston, PR1 0LP",
    "postcode": "PR1 0LP",
    "town": "Preston",
    "latitude": 53.740629,
    "longitude": -2.7402652,
    "phone": "",
    "website": "",
    "opening_hours": "",
    "stars": "",
    "wheelchair": "",
    "osm_id": 480424859,
    "osm_type": "node",
    "scraped_at": "2026-03-06T09:52:14.573646"
  },
  {
    "category": "pubs",
    "name": "Robin Hood",
    "type": "pub",
    "cuisine": "",
    "address": "",
    "postcode": "",
    "town": "",
    "latitude": 53.6905177,
    "longitude": -2.3382743,
    "phone": "",
    "website": "",
    "opening_hours": "",
    "stars": "",
    "wheelchair": "",
    "osm_id": 481478153,
    "osm_type": "node",
    "scraped_at": "2026-03-06T09:52:14.573648"
  },
  {
    "category": "pubs",
    "name": "The Bridge End",
    "type": "pub",
    "cuisine": "",
    "address": "",
    "postcode": "",
    "town": "",
    "latitude": 53.6843439,
    "longitude": -2.3315781,
    "phone": "",
    "website": "",
    "opening_hours": "",
    "stars": "",
    "wheelchair": "",
    "osm_id": 481478171,
    "osm_type": "node",
    "scraped_at": "2026-03-06T09:52:14.573649"
  },
  {
    "category": "pubs",
    "name": "Griffin",
    "type": "pub",
    "cuisine": "",
    "address": "",
    "postcode": "",
    "town": "",
    "latitude": 53.7109592,
    "longitude": -2.323861,
    "phone": "",
    "website": "",
    "opening_hours": "",
    "stars": "",
    "wheelchair": "",
    "osm_id": 481688470,
    "osm_type": "node",
    "scraped_at": "2026-03-06T09:52:14.573651"
  },
  {
    "category": "pubs",
    "name": "Holden Arms",
    "type": "pub",
    "cuisine": "",
    "address": "",
    "postcode": "",
    "town": "",
    "latitude": 53.6986475,
    "longitude": -2.3423141,
    "phone": "",
    "website": "",
    "opening_hours": "",
    "stars": "",
    "wheelchair": "",
    "osm_id": 482675140,
    "osm_type": "node",
    "scraped_at": "2026-03-06T09:52:14.573653"
  },
  {
    "category": "pubs",
    "name": "Victoria",
    "type": "pub",
    "cuisine": "",
    "address": "",
    "postcode": "",
    "town": "",
    "latitude": 53.7251364,
    "longitude": -2.6898556,
    "phone": "",
    "website": "",
    "opening_hours": "",
    "stars": "",
    "wheelchair": "",
    "osm_id": 486516087,
    "osm_type": "node",
    "scraped_at": "2026-03-06T09:52:14.573654"
  },
  {
    "category": "pubs",
    "name": "Station Hotel",
    "type": "pub",
    "cuisine": "",
    "address": "",
    "postcode": "",
    "town": "",
    "latitude": 53.6861117,
    "longitude": -2.33045,
    "phone": "",
    "website": "",
    "opening_hours": "",
    "stars": "",
    "wheelchair": "",
    "osm_id": 515190438,
    "osm_type": "node",
    "scraped_at": "2026-03-06T09:52:14.573657"
  },
  {
    "category": "pubs",
    "name": "The Sitting Goose",
    "type": "pub",
    "cuisine": "",
    "address": "Lea Lane, Preston, PR4 0RT",
    "postcode": "PR4 0RT",
    "town": "Preston",
    "latitude": 53.7903175,
    "longitude": -2.781331,
    "phone": "",
    "website": "",
    "opening_hours": "",
    "stars": "",
    "wheelchair": "",
    "osm_id": 539196012,
    "osm_type": "node",
    "scraped_at": "2026-03-06T09:52:14.573659"
  },
  {
    "category": "pubs",
    "name": "The Windmill",
    "type": "pub",
    "cuisine": "",
    "address": "",
    "postcode": "",
    "town": "",
    "latitude": 53.7746404,
    "longitude": -2.8141486,
    "phone": "",
    "website": "",
    "opening_hours": "",
    "stars": "",
    "wheelchair": "",
    "osm_id": 539196117,
    "osm_type": "node",
    "scraped_at": "2026-03-06T09:52:14.573661"
  },
  {
    "category": "pubs",
    "name": "The Talbot Arms",
    "type": "pub",
    "cuisine": "",
    "address": "High Street, Settle, BD24 9EX",
    "postcode": "BD24 9EX",
    "town": "Settle",
    "latitude": 54.0680647,
    "longitude": -2.2758472,
    "phone": "",
    "website": "https://www.talbotsettle.co.uk/",
    "opening_hours": "",
    "stars": "",
    "wheelchair": "",
    "osm_id": 540649259,
    "osm_type": "node",
    "scraped_at": "2026-03-06T09:52:14.573665"
  },
  {
    "category": "pubs",
    "name": "The Bobbin Mill",
    "type": "pub",
    "cuisine": "",
    "address": "2, Eaton Avenue, Chorley, PR7 7NA",
    "postcode": "PR7 7NA",
    "town": "Chorley",
    "latitude": 53.6869511,
    "longitude": -2.6696283,
    "phone": "",
    "website": "",
    "opening_hours": "",
    "stars": "",
    "wheelchair": "",
    "osm_id": 557019333,
    "osm_type": "node",
    "scraped_at": "2026-03-06T09:52:14.573666"
  },
  {
    "category": "pubs",
    "name": "Lane Ends",
    "type": "pub",
    "cuisine": "",
    "address": "Preston, PR4 3DH",
    "postcode": "PR4 3DH",
    "town": "Preston",
    "latitude": 53.7902459,
    "longitude": -2.8878597,
    "phone": "",
    "website": "",
    "opening_hours": "",
    "stars": "",
    "wheelchair": "",
    "osm_id": 559780655,
    "osm_type": "node",
    "scraped_at": "2026-03-06T09:52:14.573668"
  },
  {
    "category": "pubs",
    "name": "Royal Oak",
    "type": "pub",
    "cuisine": "",
    "address": "Preston, PR4 3BL",
    "postcode": "PR4 3BL",
    "town": "Preston",
    "latitude": 53.7878831,
    "longitude": -2.8854515,
    "phone": "",
    "website": "",
    "opening_hours": "",
    "stars": "",
    "wheelchair": "",
    "osm_id": 559810960,
    "osm_type": "node",
    "scraped_at": "2026-03-06T09:52:14.573670"
  },
  {
    "category": "pubs",
    "name": "Stanley Arms",
    "type": "pub",
    "cuisine": "",
    "address": "Preston, PR4 3BL",
    "postcode": "PR4 3BL",
    "town": "Preston",
    "latitude": 53.7875131,
    "longitude": -2.8852147,
    "phone": "",
    "website": "",
    "opening_hours": "",
    "stars": "",
    "wheelchair": "",
    "osm_id": 559810962,
    "osm_type": "node",
    "scraped_at": "2026-03-06T09:52:14.573671"
  },
  {
    "category": "pubs",
    "name": "Stables Bar",
    "type": "pub",
    "cuisine": "",
    "address": "48, Preston Street, Preston, PR4 2ZA",
    "postcode": "PR4 2ZA",
    "town": "Preston",
    "latitude": 53.7820917,
    "longitude": -2.8693066,
    "phone": "+44 1772 490689",
    "website": "",
    "opening_hours": "",
    "stars": "",
    "wheelchair": "",
    "osm_id": 559812230,
    "osm_type": "node",
    "scraped_at": "2026-03-06T09:52:14.573673"
  },
  {
    "category": "pubs",
    "name": "Sam's Bar",
    "type": "pub",
    "cuisine": "",
    "address": "",
    "postcode": "",
    "town": "",
    "latitude": 53.6516723,
    "longitude": -2.6273778,
    "phone": "",
    "website": "",
    "opening_hours": "",
    "stars": "",
    "wheelchair": "",
    "osm_id": 560446921,
    "osm_type": "node",
    "scraped_at": "2026-03-06T09:52:14.573675"
  },
  {
    "category": "pubs",
    "name": "Rose & Crown",
    "type": "pub",
    "cuisine": "",
    "address": "",
    "postcode": "",
    "town": "",
    "latitude": 53.6536954,
    "longitude": -2.6336427,
    "phone": "",
    "website": "",
    "opening_hours": "",
    "stars": "",
    "wheelchair": "",
    "osm_id": 569399491,
    "osm_type": "node",
    "scraped_at": "2026-03-06T09:52:14.573676"
  },
  {
    "category": "pubs",
    "name": "Colliers",
    "type": "pub",
    "cuisine": "",
    "address": "Moor Road, Chorley, PR7 2LN",
    "postcode": "PR7 2LN",
    "town": "Chorley",
    "latitude": 53.6430592,
    "longitude": -2.6382454,
    "phone": "",
    "website": "",
    "opening_hours": "",
    "stars": "",
    "wheelchair": "",
    "osm_id": 569455704,
    "osm_type": "node",
    "scraped_at": "2026-03-06T09:52:14.573678"
  },
  {
    "category": "pubs",
    "name": "Black Horse",
    "type": "pub",
    "cuisine": "",
    "address": "252, Pall Mall, Chorley, PR7 2LH",
    "postcode": "PR7 2LH",
    "town": "Chorley",
    "latitude": 53.643869,
    "longitude": -2.6374752,
    "phone": "",
    "website": "",
    "opening_hours": "",
    "stars": "",
    "wheelchair": "",
    "osm_id": 569456609,
    "osm_type": "node",
    "scraped_at": "2026-03-06T09:52:14.573680"
  },
  {
    "category": "pubs",
    "name": "The Jolly Sailor",
    "type": "pub",
    "cuisine": "",
    "address": "",
    "postcode": "",
    "town": "",
    "latitude": 53.6944711,
    "longitude": -2.2483642,
    "phone": "",
    "website": "",
    "opening_hours": "",
    "stars": "",
    "wheelchair": "",
    "osm_id": 569996370,
    "osm_type": "node",
    "scraped_at": "2026-03-06T09:52:14.573683"
  },
  {
    "category": "pubs",
    "name": "The White Lion",
    "type": "pub",
    "cuisine": "",
    "address": "",
    "postcode": "",
    "town": "",
    "latitude": 53.7065327,
    "longitude": -2.2875137,
    "phone": "",
    "website": "",
    "opening_hours": "",
    "stars": "",
    "wheelchair": "",
    "osm_id": 569996371,
    "osm_type": "node",
    "scraped_at": "2026-03-06T09:52:14.573685"
  },
  {
    "category": "pubs",
    "name": "Traders Taphouse",
    "type": "pub",
    "cuisine": "",
    "address": "Hollinshead Street, Chorley, PR7 1EP",
    "postcode": "PR7 1EP",
    "town": "Chorley",
    "latitude": 53.6557952,
    "longitude": -2.6293154,
    "phone": "",
    "website": "",
    "opening_hours": "",
    "stars": "",
    "wheelchair": "",
    "osm_id": 570772127,
    "osm_type": "node",
    "scraped_at": "2026-03-06T09:52:14.573686"
  },
  {
    "category": "pubs",
    "name": "The Astley",
    "type": "pub",
    "cuisine": "",
    "address": "Hallgate, Chorley, PR7 1XA",
    "postcode": "PR7 1XA",
    "town": "Chorley",
    "latitude": 53.6618246,
    "longitude": -2.6456521,
    "phone": "",
    "website": "",
    "opening_hours": "",
    "stars": "",
    "wheelchair": "",
    "osm_id": 570792608,
    "osm_type": "node",
    "scraped_at": "2026-03-06T09:52:14.573688"
  },
  {
    "category": "pubs",
    "name": "The Crown Hotel",
    "type": "pub",
    "cuisine": "",
    "address": "46-48, Chapel Street, Chorley, PR7 1BW",
    "postcode": "PR7 1BW",
    "town": "Chorley",
    "latitude": 53.6524892,
    "longitude": -2.6299861,
    "phone": "",
    "website": "",
    "opening_hours": "",
    "stars": "",
    "wheelchair": "",
    "osm_id": 571404809,
    "osm_type": "node",
    "scraped_at": "2026-03-06T09:52:14.573690"
  },
  {
    "category": "pubs",
    "name": "The Prince of Wales",
    "type": "pub",
    "cuisine": "",
    "address": "New Market Street, Chorley, PR7 1DB",
    "postcode": "PR7 1DB",
    "town": "Chorley",
    "latitude": 53.6535411,
    "longitude": -2.6303381,
    "phone": "+44 1257 232348",
    "website": "https://www.craftunionpubs.com/prince-of-wales-chorley",
    "opening_hours": "Mo,We 10:00-23:00;Tu 08:00-23:00;Th 10:00-02:00;Fr-Sa 10:00-02:30; Su 10:00-02:00",
    "stars": "",
    "wheelchair": "",
    "osm_id": 571404860,
    "osm_type": "node",
    "scraped_at": "2026-03-06T09:52:14.573691"
  },
  {
    "category": "pubs",
    "name": "The Flat Iron",
    "type": "pub",
    "cuisine": "",
    "address": "21, Cleveland Street, Chorley, PR7 1BH",
    "postcode": "PR7 1BH",
    "town": "Chorley",
    "latitude": 53.6535692,
    "longitude": -2.6315399,
    "phone": "",
    "website": "",
    "opening_hours": "",
    "stars": "",
    "wheelchair": "",
    "osm_id": 571404882,
    "osm_type": "node",
    "scraped_at": "2026-03-06T09:52:14.573693"
  },
  {
    "category": "pubs",
    "name": "The Sherwood",
    "type": "pub",
    "cuisine": "",
    "address": "Sherwood Way, Preston, PR2 9GA",
    "postcode": "PR2 9GA",
    "town": "Preston",
    "latitude": 53.7932779,
    "longitude": -2.6968748,
    "phone": "",
    "website": "",
    "opening_hours": "",
    "stars": "",
    "wheelchair": "",
    "osm_id": 579291949,
    "osm_type": "node",
    "scraped_at": "2026-03-06T09:52:14.573695"
  },
  {
    "category": "pubs",
    "name": "Royal Oak",
    "type": "pub",
    "cuisine": "",
    "address": "",
    "postcode": "",
    "town": "",
    "latitude": 53.6945672,
    "longitude": -2.6336049,
    "phone": "",
    "website": "",
    "opening_hours": "",
    "stars": "",
    "wheelchair": "",
    "osm_id": 582899239,
    "osm_type": "node",
    "scraped_at": "2026-03-06T09:52:14.573696"
  },
  {
    "category": "pubs",
    "name": "The Ley Inn",
    "type": "pub",
    "cuisine": "",
    "address": "Back Lane, Chorley, PR6 7EU",
    "postcode": "PR6 7EU",
    "town": "Chorley",
    "latitude": 53.6996983,
    "longitude": -2.6456505,
    "phone": "",
    "website": "",
    "opening_hours": "",
    "stars": "",
    "wheelchair": "",
    "osm_id": 583591187,
    "osm_type": "node",
    "scraped_at": "2026-03-06T09:52:14.573698"
  },
  {
    "category": "pubs",
    "name": "Alston Arms",
    "type": "pub",
    "cuisine": "",
    "address": "",
    "postcode": "",
    "town": "",
    "latitude": 53.8360737,
    "longitude": -2.609874,
    "phone": "+44 1772 782237",
    "website": "https://thealstonlongridge.co.uk/",
    "opening_hours": "",
    "stars": "",
    "wheelchair": "",
    "osm_id": 620386135,
    "osm_type": "node",
    "scraped_at": "2026-03-06T09:52:14.573704"
  },
  {
    "category": "pubs",
    "name": "Bull and Royal",
    "type": "pub",
    "cuisine": "",
    "address": "36, Derby Road, PR3 3JT",
    "postcode": "PR3 3JT",
    "town": "",
    "latitude": 53.8322767,
    "longitude": -2.6072195,
    "phone": "+44 1772 783766",
    "website": "",
    "opening_hours": "12:00-22:00",
    "stars": "",
    "wheelchair": "",
    "osm_id": 625985366,
    "osm_type": "node",
    "scraped_at": "2026-03-06T09:52:14.573706"
  },
  {
    "category": "pubs",
    "name": "St Wilfrid's Social Club",
    "type": "pub",
    "cuisine": "",
    "address": "",
    "postcode": "",
    "town": "",
    "latitude": 53.8321569,
    "longitude": -2.6076472,
    "phone": "",
    "website": "",
    "opening_hours": "",
    "stars": "",
    "wheelchair": "",
    "osm_id": 625985898,
    "osm_type": "node",
    "scraped_at": "2026-03-06T09:52:14.573708"
  },
  {
    "category": "pubs",
    "name": "Corporation Arms",
    "type": "pub",
    "cuisine": "",
    "address": "",
    "postcode": "",
    "town": "",
    "latitude": 53.8307941,
    "longitude": -2.5819465,
    "phone": "",
    "website": "",
    "opening_hours": "",
    "stars": "",
    "wheelchair": "",
    "osm_id": 626110765,
    "osm_type": "node",
    "scraped_at": "2026-03-06T09:52:14.573709"
  },
  {
    "category": "pubs",
    "name": "Duke of Wellington",
    "type": "pub",
    "cuisine": "",
    "address": "Blackburn Road, Blackburn, BB6 7DE",
    "postcode": "BB6 7DE",
    "town": "Blackburn",
    "latitude": 53.785869,
    "longitude": -2.4084992,
    "phone": "",
    "website": "",
    "opening_hours": "",
    "stars": "",
    "wheelchair": "",
    "osm_id": 631455438,
    "osm_type": "node",
    "scraped_at": "2026-03-06T09:52:14.573711"
  },
  {
    "category": "pubs",
    "name": "Cross Axes",
    "type": "pub",
    "cuisine": "",
    "address": "7, Church Street, Blackburn, BB6 7NF",
    "postcode": "BB6 7NF",
    "town": "Blackburn",
    "latitude": 53.7862291,
    "longitude": -2.4080485,
    "phone": "",
    "website": "",
    "opening_hours": "",
    "stars": "",
    "wheelchair": "",
    "osm_id": 631455938,
    "osm_type": "node",
    "scraped_at": "2026-03-06T09:52:14.573713"
  },
  {
    "category": "pubs",
    "name": "Royal Hotel",
    "type": "pub",
    "cuisine": "",
    "address": "2, Station Road, Blackburn, BB6 7BA",
    "postcode": "BB6 7BA",
    "town": "Blackburn",
    "latitude": 53.7859621,
    "longitude": -2.3977224,
    "phone": "",
    "website": "",
    "opening_hours": "",
    "stars": "",
    "wheelchair": "",
    "osm_id": 631456815,
    "osm_type": "node",
    "scraped_at": "2026-03-06T09:52:14.573714"
  },
  {
    "category": "pubs",
    "name": "Park Hotel",
    "type": "pub",
    "cuisine": "",
    "address": "1, Harwood Lane, Blackburn, BB6 7SN",
    "postcode": "BB6 7SN",
    "town": "Blackburn",
    "latitude": 53.790002,
    "longitude": -2.3971936,
    "phone": "",
    "website": "",
    "opening_hours": "",
    "stars": "",
    "wheelchair": "",
    "osm_id": 631462691,
    "osm_type": "node",
    "scraped_at": "2026-03-06T09:52:14.573716"
  },
  {
    "category": "pubs",
    "name": "Lomax Arms",
    "type": "pub",
    "cuisine": "",
    "address": "",
    "postcode": "",
    "town": "",
    "latitude": 53.7839158,
    "longitude": -2.4092665,
    "phone": "",
    "website": "",
    "opening_hours": "",
    "stars": "",
    "wheelchair": "",
    "osm_id": 632445737,
    "osm_type": "node",
    "scraped_at": "2026-03-06T09:52:14.573718"
  },
  {
    "category": "pubs",
    "name": "The Victoria ( Butcher Brig)",
    "type": "pub",
    "cuisine": "",
    "address": "Saint Johns Street, Blackburn, BB6 7EP",
    "postcode": "BB6 7EP",
    "town": "Blackburn",
    "latitude": 53.7813314,
    "longitude": -2.4050594,
    "phone": "",
    "website": "",
    "opening_hours": "",
    "stars": "",
    "wheelchair": "",
    "osm_id": 632445738,
    "osm_type": "node",
    "scraped_at": "2026-03-06T09:52:14.573721"
  },
  {
    "category": "pubs",
    "name": "The Bridge",
    "type": "pub",
    "cuisine": "",
    "address": "",
    "postcode": "",
    "town": "",
    "latitude": 53.6118424,
    "longitude": -2.6074668,
    "phone": "",
    "website": "",
    "opening_hours": "",
    "stars": "",
    "wheelchair": "",
    "osm_id": 634260095,
    "osm_type": "node",
    "scraped_at": "2026-03-06T09:52:14.573726"
  },
  {
    "category": "pubs",
    "name": "The Commercial",
    "type": "pub",
    "cuisine": "",
    "address": "62, Commercial Road, Blackburn, BB6 7HX",
    "postcode": "BB6 7HX",
    "town": "Blackburn",
    "latitude": 53.7857831,
    "longitude": -2.4119677,
    "phone": "",
    "website": "",
    "opening_hours": "",
    "stars": "",
    "wheelchair": "",
    "osm_id": 634829437,
    "osm_type": "node",
    "scraped_at": "2026-03-06T09:52:14.573728"
  },
  {
    "category": "pubs",
    "name": "The Weavers Return",
    "type": "pub",
    "cuisine": "",
    "address": "",
    "postcode": "",
    "town": "",
    "latitude": 53.7843617,
    "longitude": -2.4085029,
    "phone": "",
    "website": "",
    "opening_hours": "",
    "stars": "",
    "wheelchair": "",
    "osm_id": 635349788,
    "osm_type": "node",
    "scraped_at": "2026-03-06T09:52:14.573730"
  },
  {
    "category": "pubs",
    "name": "The Masons Arms",
    "type": "pub",
    "cuisine": "",
    "address": "",
    "postcode": "",
    "town": "",
    "latitude": 53.6423631,
    "longitude": -2.3226436,
    "phone": "",
    "website": "",
    "opening_hours": "",
    "stars": "",
    "wheelchair": "",
    "osm_id": 636009974,
    "osm_type": "node",
    "scraped_at": "2026-03-06T09:52:14.573731"
  },
  {
    "category": "pubs",
    "name": "The Fusilier",
    "type": "pub",
    "cuisine": "",
    "address": "",
    "postcode": "",
    "town": "",
    "latitude": 53.6392892,
    "longitude": -2.3272808,
    "phone": "",
    "website": "",
    "opening_hours": "",
    "stars": "",
    "wheelchair": "",
    "osm_id": 636009983,
    "osm_type": "node",
    "scraped_at": "2026-03-06T09:52:14.573733"
  },
  {
    "category": "pubs",
    "name": "Baggys",
    "type": "bar",
    "cuisine": "",
    "address": "",
    "postcode": "",
    "town": "",
    "latitude": 53.7857829,
    "longitude": -2.4074445,
    "phone": "",
    "website": "",
    "opening_hours": "",
    "stars": "",
    "wheelchair": "",
    "osm_id": 636095386,
    "osm_type": "node",
    "scraped_at": "2026-03-06T09:52:14.573735"
  },
  {
    "category": "pubs",
    "name": "Snuffys",
    "type": "pub",
    "cuisine": "",
    "address": "",
    "postcode": "",
    "town": "",
    "latitude": 53.7855629,
    "longitude": -2.4090041,
    "phone": "",
    "website": "",
    "opening_hours": "",
    "stars": "",
    "wheelchair": "",
    "osm_id": 636095387,
    "osm_type": "node",
    "scraped_at": "2026-03-06T09:52:14.573736"
  },
  {
    "category": "pubs",
    "name": "Free Gardeners",
    "type": "pub",
    "cuisine": "",
    "address": "Parker Street, Blackburn, BB1 4NT",
    "postcode": "BB1 4NT",
    "town": "Blackburn",
    "latitude": 53.7699711,
    "longitude": -2.4112391,
    "phone": "",
    "website": "",
    "opening_hours": "",
    "stars": "",
    "wheelchair": "",
    "osm_id": 638927818,
    "osm_type": "node",
    "scraped_at": "2026-03-06T09:52:14.573738"
  },
  {
    "category": "pubs",
    "name": "The Tavern",
    "type": "pub",
    "cuisine": "",
    "address": "26-28, Church Street, Blackburn, BB6 7NF",
    "postcode": "BB6 7NF",
    "town": "Blackburn",
    "latitude": 53.7868064,
    "longitude": -2.4075919,
    "phone": "",
    "website": "",
    "opening_hours": "",
    "stars": "",
    "wheelchair": "",
    "osm_id": 639192062,
    "osm_type": "node",
    "scraped_at": "2026-03-06T09:52:14.573739"
  },
  {
    "category": "pubs",
    "name": "The Leisure Hour",
    "type": "pub",
    "cuisine": "",
    "address": "6-10, Lomax Street, Blackburn, BB6 7DJ",
    "postcode": "BB6 7DJ",
    "town": "Blackburn",
    "latitude": 53.7836753,
    "longitude": -2.4064672,
    "phone": "",
    "website": "",
    "opening_hours": "",
    "stars": "",
    "wheelchair": "",
    "osm_id": 641134377,
    "osm_type": "node",
    "scraped_at": "2026-03-06T09:52:14.573741"
  },
  {
    "category": "pubs",
    "name": "Rivington Hall Barn",
    "type": "pub",
    "cuisine": "",
    "address": "Rivington Lane, Bolton, BL6 7SB",
    "postcode": "BL6 7SB",
    "town": "Bolton",
    "latitude": 53.6256279,
    "longitude": -2.5562329,
    "phone": "",
    "website": "https://www.rivingtonhallbarn.co.uk/",
    "opening_hours": "",
    "stars": "",
    "wheelchair": "",
    "osm_id": 641558682,
    "osm_type": "node",
    "scraped_at": "2026-03-06T09:52:14.573745"
  },
  {
    "category": "pubs",
    "name": "The Swan Hotel",
    "type": "pub",
    "cuisine": "",
    "address": "62, King Street, Whalley, BB7 9SN",
    "postcode": "BB7 9SN",
    "town": "Whalley",
    "latitude": 53.8212242,
    "longitude": -2.4064355,
    "phone": "",
    "website": "https://www.vixen-pubs.co.uk/swan-hotel-pub-whalley",
    "opening_hours": "",
    "stars": "",
    "wheelchair": "yes",
    "osm_id": 644869784,
    "osm_type": "node",
    "scraped_at": "2026-03-06T09:52:14.573746"
  },
  {
    "category": "pubs",
    "name": "The Walmesley Arms",
    "type": "pub",
    "cuisine": "",
    "address": "",
    "postcode": "",
    "town": "",
    "latitude": 53.7860745,
    "longitude": -2.4066201,
    "phone": "",
    "website": "",
    "opening_hours": "",
    "stars": "",
    "wheelchair": "",
    "osm_id": 646923089,
    "osm_type": "node",
    "scraped_at": "2026-03-06T09:52:14.573748"
  },
  {
    "category": "pubs",
    "name": "Hearth of the Ram",
    "type": "pub",
    "cuisine": "",
    "address": "13, Peel Brow, Bury, BL0 0AA",
    "postcode": "BL0 0AA",
    "town": "Bury",
    "latitude": 53.6478054,
    "longitude": -2.3119484,
    "phone": "",
    "website": "",
    "opening_hours": "",
    "stars": "",
    "wheelchair": "",
    "osm_id": 649319397,
    "osm_type": "node",
    "scraped_at": "2026-03-06T09:52:14.573749"
  },
  {
    "category": "pubs",
    "name": "Lounge",
    "type": "bar",
    "cuisine": "",
    "address": "2, Prince Street, Bury, BL0 9FN",
    "postcode": "BL0 9FN",
    "town": "Bury",
    "latitude": 53.6478911,
    "longitude": -2.31717,
    "phone": "",
    "website": "",
    "opening_hours": "",
    "stars": "",
    "wheelchair": "",
    "osm_id": 649319405,
    "osm_type": "node",
    "scraped_at": "2026-03-06T09:52:14.573751"
  },
  {
    "category": "pubs",
    "name": "Forts Arms",
    "type": "pub",
    "cuisine": "",
    "address": "Barnes Street, Accrington, BB5 5TA",
    "postcode": "BB5 5TA",
    "town": "Accrington",
    "latitude": 53.7771346,
    "longitude": -2.3893903,
    "phone": "",
    "website": "",
    "opening_hours": "",
    "stars": "",
    "wheelchair": "",
    "osm_id": 650964885,
    "osm_type": "node",
    "scraped_at": "2026-03-06T09:52:14.573753"
  },
  {
    "category": "pubs",
    "name": "The Tillotsons Arms",
    "type": "pub",
    "cuisine": "",
    "address": "Chipping, PR3 2QE",
    "postcode": "PR3 2QE",
    "town": "Chipping",
    "latitude": 53.8846878,
    "longitude": -2.5749075,
    "phone": "",
    "website": "",
    "opening_hours": "",
    "stars": "",
    "wheelchair": "",
    "osm_id": 653299484,
    "osm_type": "node",
    "scraped_at": "2026-03-06T09:52:14.573754"
  },
  {
    "category": "pubs",
    "name": "106 County Bar",
    "type": "bar",
    "cuisine": "",
    "address": "106, High Street, Rishton, BB1 4LQ",
    "postcode": "BB1 4LQ",
    "town": "Rishton",
    "latitude": 53.7682383,
    "longitude": -2.4167415,
    "phone": "",
    "website": "",
    "opening_hours": "",
    "stars": "",
    "wheelchair": "",
    "osm_id": 658618240,
    "osm_type": "node",
    "scraped_at": "2026-03-06T09:52:14.573756"
  },
  {
    "category": "pubs",
    "name": "Oddfellows Arms",
    "type": "pub",
    "cuisine": "",
    "address": "",
    "postcode": "",
    "town": "",
    "latitude": 53.7760615,
    "longitude": -2.3835237,
    "phone": "",
    "website": "",
    "opening_hours": "",
    "stars": "",
    "wheelchair": "",
    "osm_id": 660191068,
    "osm_type": "node",
    "scraped_at": "2026-03-06T09:52:14.573758"
  },
  {
    "category": "pubs",
    "name": "Thorn Inn",
    "type": "pub",
    "cuisine": "",
    "address": "St James Road, Accrington, BB5 4JP",
    "postcode": "BB5 4JP",
    "town": "Accrington",
    "latitude": 53.7571352,
    "longitude": -2.3935867,
    "phone": "",
    "website": "",
    "opening_hours": "",
    "stars": "",
    "wheelchair": "yes",
    "osm_id": 660197489,
    "osm_type": "node",
    "scraped_at": "2026-03-06T09:52:14.573760"
  },
  {
    "category": "pubs",
    "name": "The Albion",
    "type": "pub",
    "cuisine": "",
    "address": "243, Whalley Road, Accrington, BB5 5HD",
    "postcode": "BB5 5HD",
    "town": "Accrington",
    "latitude": 53.7738093,
    "longitude": -2.3829829,
    "phone": "",
    "website": "",
    "opening_hours": "",
    "stars": "",
    "wheelchair": "",
    "osm_id": 660197997,
    "osm_type": "node",
    "scraped_at": "2026-03-06T09:52:14.573763"
  },
  {
    "category": "pubs",
    "name": "Park View WMC",
    "type": "pub",
    "cuisine": "",
    "address": "Bayley Street, Accrington, BB5 5PR",
    "postcode": "BB5 5PR",
    "town": "Accrington",
    "latitude": 53.777252,
    "longitude": -2.3909804,
    "phone": "",
    "website": "",
    "opening_hours": "",
    "stars": "",
    "wheelchair": "",
    "osm_id": 660499347,
    "osm_type": "node",
    "scraped_at": "2026-03-06T09:52:14.573765"
  },
  {
    "category": "pubs",
    "name": "The Horseshoe Inn",
    "type": "pub",
    "cuisine": "",
    "address": "",
    "postcode": "",
    "town": "",
    "latitude": 53.8699264,
    "longitude": -2.3979227,
    "phone": "",
    "website": "",
    "opening_hours": "",
    "stars": "",
    "wheelchair": "",
    "osm_id": 661059975,
    "osm_type": "node",
    "scraped_at": "2026-03-06T09:52:14.573766"
  },
  {
    "category": "pubs",
    "name": "The Castle",
    "type": "pub",
    "cuisine": "",
    "address": "",
    "postcode": "",
    "town": "",
    "latitude": 53.8718165,
    "longitude": -2.3945052,
    "phone": "",
    "website": "",
    "opening_hours": "",
    "stars": "",
    "wheelchair": "",
    "osm_id": 661059977,
    "osm_type": "node",
    "scraped_at": "2026-03-06T09:52:14.573768"
  },
  {
    "category": "pubs",
    "name": "The White Lion",
    "type": "pub",
    "cuisine": "",
    "address": "",
    "postcode": "",
    "town": "",
    "latitude": 53.8728918,
    "longitude": -2.391008,
    "phone": "",
    "website": "",
    "opening_hours": "",
    "stars": "",
    "wheelchair": "",
    "osm_id": 661062411,
    "osm_type": "node",
    "scraped_at": "2026-03-06T09:52:14.573770"
  },
  {
    "category": "pubs",
    "name": "Rishton Workmens Club",
    "type": "pub",
    "cuisine": "",
    "address": "22, Commercial Street, Blackburn, BB1 4NB",
    "postcode": "BB1 4NB",
    "town": "Blackburn",
    "latitude": 53.7692314,
    "longitude": -2.4147424,
    "phone": "",
    "website": "",
    "opening_hours": "",
    "stars": "",
    "wheelchair": "",
    "osm_id": 662054783,
    "osm_type": "node",
    "scraped_at": "2026-03-06T09:52:14.573772"
  },
  {
    "category": "pubs",
    "name": "Roebuck Inn",
    "type": "pub",
    "cuisine": "",
    "address": "High Street, Blackburn, BB1 4JZ",
    "postcode": "BB1 4JZ",
    "town": "Blackburn",
    "latitude": 53.7682723,
    "longitude": -2.4138841,
    "phone": "",
    "website": "https://www.craftunionpubs.com/the-roebuck-rishton",
    "opening_hours": "",
    "stars": "",
    "wheelchair": "",
    "osm_id": 662054803,
    "osm_type": "node",
    "scraped_at": "2026-03-06T09:52:14.573773"
  },
  {
    "category": "pubs",
    "name": "Spinners Arms",
    "type": "pub",
    "cuisine": "",
    "address": "",
    "postcode": "",
    "town": "",
    "latitude": 53.6141469,
    "longitude": -2.6049348,
    "phone": "",
    "website": "",
    "opening_hours": "",
    "stars": "",
    "wheelchair": "yes",
    "osm_id": 662762152,
    "osm_type": "node",
    "scraped_at": "2026-03-06T09:52:14.573775"
  },
  {
    "category": "pubs",
    "name": "The George",
    "type": "pub",
    "cuisine": "",
    "address": "185, Blackburn Road, Accrington, BB5 0AF",
    "postcode": "BB5 0AF",
    "town": "Accrington",
    "latitude": 53.7531822,
    "longitude": -2.3727551,
    "phone": "",
    "website": "",
    "opening_hours": "",
    "stars": "",
    "wheelchair": "",
    "osm_id": 663251391,
    "osm_type": "node",
    "scraped_at": "2026-03-06T09:52:14.573777"
  },
  {
    "category": "pubs",
    "name": "Alison Arms",
    "type": "pub",
    "cuisine": "",
    "address": "Preston Road, Chorley, PR7 5DU",
    "postcode": "PR7 5DU",
    "town": "Chorley",
    "latitude": 53.6122034,
    "longitude": -2.673922,
    "phone": "",
    "website": "",
    "opening_hours": "",
    "stars": "",
    "wheelchair": "",
    "osm_id": 663648849,
    "osm_type": "node",
    "scraped_at": "2026-03-06T09:52:14.573779"
  },
  {
    "category": "pubs",
    "name": "The Bay Horse",
    "type": "pub",
    "cuisine": "",
    "address": "Babylon Lane, Chorley, PR6 9ER",
    "postcode": "PR6 9ER",
    "town": "Chorley",
    "latitude": 53.6259294,
    "longitude": -2.5884046,
    "phone": "",
    "website": "",
    "opening_hours": "",
    "stars": "",
    "wheelchair": "",
    "osm_id": 663651000,
    "osm_type": "node",
    "scraped_at": "2026-03-06T09:52:14.573782"
  },
  {
    "category": "pubs",
    "name": "The Black Horse",
    "type": "pub",
    "cuisine": "",
    "address": "Long Lane, Chorley, PR6 9EE",
    "postcode": "PR6 9EE",
    "town": "Chorley",
    "latitude": 53.6419304,
    "longitude": -2.6032898,
    "phone": "",
    "website": "",
    "opening_hours": "",
    "stars": "",
    "wheelchair": "",
    "osm_id": 663651098,
    "osm_type": "node",
    "scraped_at": "2026-03-06T09:52:14.573784"
  },
  {
    "category": "pubs",
    "name": "The Spinners at Cowling",
    "type": "pub",
    "cuisine": "",
    "address": "77-79, Cowling Road, Chorley, PR6 9EA",
    "postcode": "PR6 9EA",
    "town": "Chorley",
    "latitude": 53.6457265,
    "longitude": -2.6092524,
    "phone": "",
    "website": "",
    "opening_hours": "",
    "stars": "",
    "wheelchair": "",
    "osm_id": 663651189,
    "osm_type": "node",
    "scraped_at": "2026-03-06T09:52:14.573785"
  },
  {
    "category": "pubs",
    "name": "Fifty9 King Street",
    "type": "bar",
    "cuisine": "",
    "address": "59, King Street, Whalley, BB7 9SP",
    "postcode": "BB7 9SP",
    "town": "Whalley",
    "latitude": 53.8212415,
    "longitude": -2.4066983,
    "phone": "+44 1254 822232",
    "website": "",
    "opening_hours": "Mo off; Tu-Th 15:00-23:00; Fr-Su 12:00-23:00",
    "stars": "",
    "wheelchair": "",
    "osm_id": 664554043,
    "osm_type": "node",
    "scraped_at": "2026-03-06T09:52:14.573789"
  },
  {
    "category": "pubs",
    "name": "The Whalley Wine Bar",
    "type": "bar",
    "cuisine": "",
    "address": "65-67, King Street, Whalley, BB7 9SW",
    "postcode": "BB7 9SW",
    "town": "Whalley",
    "latitude": 53.8215845,
    "longitude": -2.4068444,
    "phone": "",
    "website": "",
    "opening_hours": "",
    "stars": "",
    "wheelchair": "",
    "osm_id": 664554062,
    "osm_type": "node",
    "scraped_at": "2026-03-06T09:52:14.573790"
  },
  {
    "category": "pubs",
    "name": "The Printers Arms",
    "type": "pub",
    "cuisine": "",
    "address": "4, Coppull Hall Lane, Chorley, PR7 4PP",
    "postcode": "PR7 4PP",
    "town": "Chorley",
    "latitude": 53.6246063,
    "longitude": -2.6522319,
    "phone": "",
    "website": "",
    "opening_hours": "Su-Th 15:00-22:00; Fr,Sa 12:00-23:30",
    "stars": "",
    "wheelchair": "",
    "osm_id": 666915104,
    "osm_type": "node",
    "scraped_at": "2026-03-06T09:52:14.573792"
  },
  {
    "category": "pubs",
    "name": "The Edisford Bridge",
    "type": "pub",
    "cuisine": "",
    "address": "",
    "postcode": "",
    "town": "",
    "latitude": 53.8688303,
    "longitude": -2.4201824,
    "phone": "",
    "website": "",
    "opening_hours": "",
    "stars": "",
    "wheelchair": "",
    "osm_id": 667355192,
    "osm_type": "node",
    "scraped_at": "2026-03-06T09:52:14.573794"
  },
  {
    "category": "pubs",
    "name": "Printers",
    "type": "bar",
    "cuisine": "",
    "address": "",
    "postcode": "",
    "town": "",
    "latitude": 53.7483163,
    "longitude": -2.3912903,
    "phone": "",
    "website": "",
    "opening_hours": "",
    "stars": "",
    "wheelchair": "",
    "osm_id": 669178102,
    "osm_type": "node",
    "scraped_at": "2026-03-06T09:52:14.573796"
  },
  {
    "category": "pubs",
    "name": "The Brown Cow",
    "type": "pub",
    "cuisine": "",
    "address": "",
    "postcode": "",
    "town": "",
    "latitude": 53.8928414,
    "longitude": -2.3534491,
    "phone": "",
    "website": "",
    "opening_hours": "",
    "stars": "",
    "wheelchair": "",
    "osm_id": 669561050,
    "osm_type": "node",
    "scraped_at": "2026-03-06T09:52:14.573797"
  },
  {
    "category": "pubs",
    "name": "The Black Bull",
    "type": "pub",
    "cuisine": "",
    "address": "",
    "postcode": "",
    "town": "",
    "latitude": 53.892557,
    "longitude": -2.3542151,
    "phone": "",
    "website": "",
    "opening_hours": "",
    "stars": "",
    "wheelchair": "",
    "osm_id": 669561062,
    "osm_type": "node",
    "scraped_at": "2026-03-06T09:52:14.573799"
  },
  {
    "category": "pubs",
    "name": "The Lower Buck",
    "type": "pub",
    "cuisine": "",
    "address": "",
    "postcode": "",
    "town": "",
    "latitude": 53.8895637,
    "longitude": -2.4155479,
    "phone": "",
    "website": "",
    "opening_hours": "",
    "stars": "",
    "wheelchair": "",
    "osm_id": 674111422,
    "osm_type": "node",
    "scraped_at": "2026-03-06T09:52:14.573802"
  },
  {
    "category": "pubs",
    "name": "Waddington Arms",
    "type": "pub",
    "cuisine": "",
    "address": "",
    "postcode": "",
    "town": "",
    "latitude": 53.8905444,
    "longitude": -2.4141072,
    "phone": "",
    "website": "",
    "opening_hours": "",
    "stars": "",
    "wheelchair": "",
    "osm_id": 674111425,
    "osm_type": "node",
    "scraped_at": "2026-03-06T09:52:14.573804"
  },
  {
    "category": "pubs",
    "name": "Higher Buck",
    "type": "pub",
    "cuisine": "",
    "address": "",
    "postcode": "",
    "town": "",
    "latitude": 53.8911442,
    "longitude": -2.4149213,
    "phone": "",
    "website": "",
    "opening_hours": "",
    "stars": "",
    "wheelchair": "",
    "osm_id": 674111429,
    "osm_type": "node",
    "scraped_at": "2026-03-06T09:52:14.573806"
  },
  {
    "category": "pubs",
    "name": "The Lord Nelson",
    "type": "pub",
    "cuisine": "",
    "address": "",
    "postcode": "",
    "town": "",
    "latitude": 53.7983507,
    "longitude": -2.4414541,
    "phone": "",
    "website": "",
    "opening_hours": "",
    "stars": "",
    "wheelchair": "",
    "osm_id": 674745336,
    "osm_type": "node",
    "scraped_at": "2026-03-06T09:52:14.573807"
  },
  {
    "category": "pubs",
    "name": "Sauce Box",
    "type": "bar",
    "cuisine": "",
    "address": "",
    "postcode": "",
    "town": "",
    "latitude": 53.8703532,
    "longitude": -2.3918769,
    "phone": "",
    "website": "",
    "opening_hours": "",
    "stars": "",
    "wheelchair": "",
    "osm_id": 697304316,
    "osm_type": "node",
    "scraped_at": "2026-03-06T09:52:14.573809"
  },
  {
    "category": "pubs",
    "name": "Brown Cow",
    "type": "pub",
    "cuisine": "",
    "address": "42-44, Moor Lane, Clitheroe, BB7 1AJ",
    "postcode": "BB7 1AJ",
    "town": "Clitheroe",
    "latitude": 53.8692462,
    "longitude": -2.3927273,
    "phone": "",
    "website": "",
    "opening_hours": "",
    "stars": "",
    "wheelchair": "",
    "osm_id": 697304320,
    "osm_type": "node",
    "scraped_at": "2026-03-06T09:52:14.573810"
  },
  {
    "category": "pubs",
    "name": "The Emporium Coffee and Wine Bar",
    "type": "bar",
    "cuisine": "",
    "address": "Moor Lane, Clitheroe, BB7 1BE",
    "postcode": "BB7 1BE",
    "town": "Clitheroe",
    "latitude": 53.8693559,
    "longitude": -2.3922838,
    "phone": "",
    "website": "https://www.theemporiumclitheroe.co.uk/",
    "opening_hours": "",
    "stars": "",
    "wheelchair": "",
    "osm_id": 697304322,
    "osm_type": "node",
    "scraped_at": "2026-03-06T09:52:14.573812"
  },
  {
    "category": "pubs",
    "name": "Rose and Crown",
    "type": "pub",
    "cuisine": "",
    "address": "",
    "postcode": "",
    "town": "",
    "latitude": 53.8719783,
    "longitude": -2.3920809,
    "phone": "",
    "website": "",
    "opening_hours": "",
    "stars": "",
    "wheelchair": "limited",
    "osm_id": 697306751,
    "osm_type": "node",
    "scraped_at": "2026-03-06T09:52:14.573814"
  },
  {
    "category": "pubs",
    "name": "The Swan and Royal Hotel",
    "type": "pub",
    "cuisine": "",
    "address": "",
    "postcode": "",
    "town": "",
    "latitude": 53.8720819,
    "longitude": -2.3916359,
    "phone": "",
    "website": "",
    "opening_hours": "",
    "stars": "",
    "wheelchair": "no",
    "osm_id": 697306775,
    "osm_type": "node",
    "scraped_at": "2026-03-06T09:52:14.573815"
  },
  {
    "category": "pubs",
    "name": "Royal Oak",
    "type": "pub",
    "cuisine": "",
    "address": "",
    "postcode": "",
    "town": "",
    "latitude": 53.8746265,
    "longitude": -2.3865824,
    "phone": "",
    "website": "",
    "opening_hours": "",
    "stars": "",
    "wheelchair": "",
    "osm_id": 703197610,
    "osm_type": "node",
    "scraped_at": "2026-03-06T09:52:14.573817"
  },
  {
    "category": "pubs",
    "name": "The Parlour",
    "type": "bar",
    "cuisine": "",
    "address": "",
    "postcode": "",
    "town": "",
    "latitude": 53.8727162,
    "longitude": -2.3899602,
    "phone": "",
    "website": "",
    "opening_hours": "",
    "stars": "",
    "wheelchair": "",
    "osm_id": 703219581,
    "osm_type": "node",
    "scraped_at": "2026-03-06T09:52:14.573820"
  },
  {
    "category": "pubs",
    "name": "Buck Inn",
    "type": "pub",
    "cuisine": "",
    "address": "",
    "postcode": "",
    "town": "",
    "latitude": 53.8720125,
    "longitude": -2.388925,
    "phone": "",
    "website": "",
    "opening_hours": "",
    "stars": "",
    "wheelchair": "",
    "osm_id": 703219624,
    "osm_type": "node",
    "scraped_at": "2026-03-06T09:52:14.573822"
  },
  {
    "category": "pubs",
    "name": "The Dog",
    "type": "pub",
    "cuisine": "",
    "address": "",
    "postcode": "",
    "town": "",
    "latitude": 53.8724236,
    "longitude": -2.3889048,
    "phone": "",
    "website": "https://www.craftunionpubs.com/dog-and-partridge-clitheroe",
    "opening_hours": "",
    "stars": "",
    "wheelchair": "",
    "osm_id": 703219634,
    "osm_type": "node",
    "scraped_at": "2026-03-06T09:52:14.573824"
  },
  {
    "category": "pubs",
    "name": "Keystreet",
    "type": "bar",
    "cuisine": "",
    "address": "49, Lowergate, Clitheroe, BB7 1AD",
    "postcode": "BB7 1AD",
    "town": "Clitheroe",
    "latitude": 53.8711876,
    "longitude": -2.3909656,
    "phone": "",
    "website": "",
    "opening_hours": "",
    "stars": "",
    "wheelchair": "",
    "osm_id": 703222076,
    "osm_type": "node",
    "scraped_at": "2026-03-06T09:52:14.573825"
  },
  {
    "category": "pubs",
    "name": "Lord Nelson",
    "type": "pub",
    "cuisine": "",
    "address": "",
    "postcode": "",
    "town": "",
    "latitude": 53.6614798,
    "longitude": -2.7738853,
    "phone": "",
    "website": "",
    "opening_hours": "",
    "stars": "",
    "wheelchair": "",
    "osm_id": 723913838,
    "osm_type": "node",
    "scraped_at": "2026-03-06T09:52:14.573827"
  },
  {
    "category": "pubs",
    "name": "Hare And Hounds",
    "type": "pub",
    "cuisine": "",
    "address": "Burnley Road, Todmorden, OL14 8EA",
    "postcode": "OL14 8EA",
    "town": "Todmorden",
    "latitude": 53.7217232,
    "longitude": -2.1076381,
    "phone": "",
    "website": "https://hareandhoundstodmorden.com",
    "opening_hours": "",
    "stars": "",
    "wheelchair": "",
    "osm_id": 732727909,
    "osm_type": "node",
    "scraped_at": "2026-03-06T09:52:14.573829"
  },
  {
    "category": "pubs",
    "name": "Jack's House",
    "type": "pub",
    "cuisine": "",
    "address": "122, Burnley Road, Todmorden, OL14 5JT",
    "postcode": "OL14 5JT",
    "town": "Todmorden",
    "latitude": 53.7191329,
    "longitude": -2.1026024,
    "phone": "",
    "website": "",
    "opening_hours": "",
    "stars": "",
    "wheelchair": "",
    "osm_id": 734178685,
    "osm_type": "node",
    "scraped_at": "2026-03-06T09:52:14.573830"
  },
  {
    "category": "pubs",
    "name": "Bar 13",
    "type": "pub",
    "cuisine": "",
    "address": "13, Duke Street, Settle, BD24 9DU",
    "postcode": "BD24 9DU",
    "town": "Settle",
    "latitude": 54.067799,
    "longitude": -2.2772278,
    "phone": "+44 1729 824356",
    "website": "",
    "opening_hours": "",
    "stars": "",
    "wheelchair": "yes",
    "osm_id": 735006223,
    "osm_type": "node",
    "scraped_at": "2026-03-06T09:52:14.573832"
  },
  {
    "category": "pubs",
    "name": "Pendle Witch",
    "type": "pub",
    "cuisine": "",
    "address": "",
    "postcode": "",
    "town": "",
    "latitude": 53.8325041,
    "longitude": -2.3386018,
    "phone": "",
    "website": "",
    "opening_hours": "",
    "stars": "",
    "wheelchair": "",
    "osm_id": 747084286,
    "osm_type": "node",
    "scraped_at": "2026-03-06T09:52:14.573834"
  },
  {
    "category": "pubs",
    "name": "The White Swan",
    "type": "pub",
    "cuisine": "",
    "address": "300, Wheatley Lane Road, Burnley, BB12 9QA",
    "postcode": "BB12 9QA",
    "town": "Burnley",
    "latitude": 53.8392694,
    "longitude": -2.2509958,
    "phone": "",
    "website": "",
    "opening_hours": "",
    "stars": "",
    "wheelchair": "",
    "osm_id": 747103179,
    "osm_type": "node",
    "scraped_at": "2026-03-06T09:52:14.573836"
  },
  {
    "category": "pubs",
    "name": "The Major",
    "type": "pub",
    "cuisine": "",
    "address": "158-160, Bolton Street, Bury, BL0 9JA",
    "postcode": "BL0 9JA",
    "town": "Bury",
    "latitude": 53.6449737,
    "longitude": -2.320009,
    "phone": "",
    "website": "",
    "opening_hours": "",
    "stars": "",
    "wheelchair": "",
    "osm_id": 768585950,
    "osm_type": "node",
    "scraped_at": "2026-03-06T09:52:14.573839"
  },
  {
    "category": "pubs",
    "name": "Smiths Arms Hotel",
    "type": "pub",
    "cuisine": "",
    "address": "Lea Lane, Preston, PR4 0RP",
    "postcode": "PR4 0RP",
    "town": "Preston",
    "latitude": 53.773814,
    "longitude": -2.795945,
    "phone": "",
    "website": "",
    "opening_hours": "",
    "stars": "",
    "wheelchair": "",
    "osm_id": 768852744,
    "osm_type": "node",
    "scraped_at": "2026-03-06T09:52:14.573841"
  },
  {
    "category": "pubs",
    "name": "The Dolphin Inn",
    "type": "pub",
    "cuisine": "",
    "address": "Marsh Lane, Preston, PR4 5JY",
    "postcode": "PR4 5JY",
    "town": "Preston",
    "latitude": 53.7225211,
    "longitude": -2.8216766,
    "phone": "",
    "website": "",
    "opening_hours": "",
    "stars": "",
    "wheelchair": "",
    "osm_id": 771600646,
    "osm_type": "node",
    "scraped_at": "2026-03-06T09:52:14.573842"
  },
  {
    "category": "pubs",
    "name": "The Barlick",
    "type": "pub",
    "cuisine": "",
    "address": "8, Newtown, Barnoldswick, BB18 5UQ",
    "postcode": "BB18 5UQ",
    "town": "Barnoldswick",
    "latitude": 53.9150775,
    "longitude": -2.190335,
    "phone": "",
    "website": "",
    "opening_hours": "",
    "stars": "",
    "wheelchair": "",
    "osm_id": 773606127,
    "osm_type": "node",
    "scraped_at": "2026-03-06T09:52:14.573846"
  },
  {
    "category": "pubs",
    "name": "Fanny Grey",
    "type": "pub",
    "cuisine": "",
    "address": "",
    "postcode": "",
    "town": "",
    "latitude": 53.8973829,
    "longitude": -2.1820887,
    "phone": "",
    "website": "",
    "opening_hours": "",
    "stars": "",
    "wheelchair": "",
    "osm_id": 773619404,
    "osm_type": "node",
    "scraped_at": "2026-03-06T09:52:14.573847"
  },
  {
    "category": "pubs",
    "name": "Bar 5",
    "type": "bar",
    "cuisine": "",
    "address": "",
    "postcode": "",
    "town": "",
    "latitude": 53.6165037,
    "longitude": -2.1575594,
    "phone": "",
    "website": "",
    "opening_hours": "",
    "stars": "",
    "wheelchair": "",
    "osm_id": 778293364,
    "osm_type": "node",
    "scraped_at": "2026-03-06T09:52:14.573849"
  },
  {
    "category": "pubs",
    "name": "quarrymans",
    "type": "pub",
    "cuisine": "",
    "address": "",
    "postcode": "",
    "town": "",
    "latitude": 53.754394,
    "longitude": -2.5033682,
    "phone": "",
    "website": "",
    "opening_hours": "",
    "stars": "",
    "wheelchair": "",
    "osm_id": 845436449,
    "osm_type": "node",
    "scraped_at": "2026-03-06T09:52:14.573850"
  },
  {
    "category": "pubs",
    "name": "Black Bull",
    "type": "pub",
    "cuisine": "",
    "address": "",
    "postcode": "",
    "town": "",
    "latitude": 53.7049064,
    "longitude": -2.3260415,
    "phone": "",
    "website": "",
    "opening_hours": "",
    "stars": "",
    "wheelchair": "",
    "osm_id": 846146354,
    "osm_type": "node",
    "scraped_at": "2026-03-06T09:52:14.573852"
  },
  {
    "category": "pubs",
    "name": "The Wheatsheaf",
    "type": "pub",
    "cuisine": "",
    "address": "50, Water Lane, Preston, PR2 2NL",
    "postcode": "PR2 2NL",
    "town": "Preston",
    "latitude": 53.764145,
    "longitude": -2.722962,
    "phone": "",
    "website": "",
    "opening_hours": "Mo-Su 10:00-23:30",
    "stars": "",
    "wheelchair": "",
    "osm_id": 871283139,
    "osm_type": "node",
    "scraped_at": "2026-03-06T09:52:14.573854"
  },
  {
    "category": "pubs",
    "name": "Old Original Seven Stars",
    "type": "pub",
    "cuisine": "",
    "address": "2, Slater Lane, Leyland, PR25 1TL",
    "postcode": "PR25 1TL",
    "town": "Leyland",
    "latitude": 53.6892379,
    "longitude": -2.7169749,
    "phone": "+44 1772 435712",
    "website": "",
    "opening_hours": "",
    "stars": "",
    "wheelchair": "",
    "osm_id": 885940095,
    "osm_type": "node",
    "scraped_at": "2026-03-06T09:52:14.573857"
  },
  {
    "category": "pubs",
    "name": "The Crofters",
    "type": "pub",
    "cuisine": "",
    "address": "Leyland Lane, Leyland",
    "postcode": "",
    "town": "Leyland",
    "latitude": 53.6879251,
    "longitude": -2.7160051,
    "phone": "",
    "website": "",
    "opening_hours": "",
    "stars": "",
    "wheelchair": "",
    "osm_id": 885940418,
    "osm_type": "node",
    "scraped_at": "2026-03-06T09:52:14.573861"
  },
  {
    "category": "pubs",
    "name": "Dunkirk Hall",
    "type": "pub",
    "cuisine": "",
    "address": "Dunkirk Lane, Leyland, PR26 7SW",
    "postcode": "PR26 7SW",
    "town": "Leyland",
    "latitude": 53.6913037,
    "longitude": -2.7232298,
    "phone": "+44 1772 641377",
    "website": "",
    "opening_hours": "",
    "stars": "",
    "wheelchair": "",
    "osm_id": 886910815,
    "osm_type": "node",
    "scraped_at": "2026-03-06T09:52:14.573863"
  },
  {
    "category": "pubs",
    "name": "Withy Arms",
    "type": "pub",
    "cuisine": "",
    "address": "3-5, Worden Lane, Leyland, PR25 3EL",
    "postcode": "PR25 3EL",
    "town": "Leyland",
    "latitude": 53.6885599,
    "longitude": -2.6978998,
    "phone": "",
    "website": "",
    "opening_hours": "",
    "stars": "",
    "wheelchair": "",
    "osm_id": 887085817,
    "osm_type": "node",
    "scraped_at": "2026-03-06T09:52:14.573864"
  },
  {
    "category": "pubs",
    "name": "Fox & Lion",
    "type": "pub",
    "cuisine": "",
    "address": "1, Towngate, Leyland, PR25 2EN",
    "postcode": "PR25 2EN",
    "town": "Leyland",
    "latitude": 53.6885762,
    "longitude": -2.6984147,
    "phone": "",
    "website": "",
    "opening_hours": "",
    "stars": "",
    "wheelchair": "",
    "osm_id": 887085834,
    "osm_type": "node",
    "scraped_at": "2026-03-06T09:52:14.573866"
  },
  {
    "category": "pubs",
    "name": "The Grapes",
    "type": "pub",
    "cuisine": "",
    "address": "67, Town Road, Leyland, PR26 9RA",
    "postcode": "PR26 9RA",
    "town": "Leyland",
    "latitude": 53.6603479,
    "longitude": -2.7733415,
    "phone": "",
    "website": "",
    "opening_hours": "",
    "stars": "",
    "wheelchair": "",
    "osm_id": 907203964,
    "osm_type": "node",
    "scraped_at": "2026-03-06T09:52:14.573868"
  },
  {
    "category": "pubs",
    "name": "Cloughfold Conservative Club",
    "type": "pub",
    "cuisine": "",
    "address": "",
    "postcode": "",
    "town": "",
    "latitude": 53.6984895,
    "longitude": -2.2688869,
    "phone": "",
    "website": "",
    "opening_hours": "",
    "stars": "",
    "wheelchair": "",
    "osm_id": 932904949,
    "osm_type": "node",
    "scraped_at": "2026-03-06T09:52:14.573869"
  },
  {
    "category": "pubs",
    "name": "Cock and Bottle",
    "type": "pub",
    "cuisine": "",
    "address": "70, Church Road, Preston, PR4 6UP",
    "postcode": "PR4 6UP",
    "town": "Preston",
    "latitude": 53.6782262,
    "longitude": -2.8318366,
    "phone": "+44 1772 816999",
    "website": "https://www.cockandbottletarleton.co.uk/",
    "opening_hours": "Su-We 12:00-23:00; Th,Fr,Sa 12:00-24:00",
    "stars": "",
    "wheelchair": "",
    "osm_id": 937953631,
    "osm_type": "node",
    "scraped_at": "2026-03-06T09:52:14.573871"
  },
  {
    "category": "pubs",
    "name": "Hesketh Arms",
    "type": "pub",
    "cuisine": "",
    "address": "81, Liverpool Road, Ormskirk, L40 1SB",
    "postcode": "L40 1SB",
    "town": "Ormskirk",
    "latitude": 53.6335857,
    "longitude": -2.8170963,
    "phone": "",
    "website": "",
    "opening_hours": "",
    "stars": "",
    "wheelchair": "yes",
    "osm_id": 937953635,
    "osm_type": "node",
    "scraped_at": "2026-03-06T09:52:14.573873"
  },
  {
    "category": "pubs",
    "name": "The Cricketers",
    "type": "pub",
    "cuisine": "",
    "address": "94, School Lane, Chorley, PR6 8QP",
    "postcode": "PR6 8QP",
    "town": "Chorley",
    "latitude": 53.6884143,
    "longitude": -2.5694116,
    "phone": "",
    "website": "",
    "opening_hours": "",
    "stars": "",
    "wheelchair": "",
    "osm_id": 942803343,
    "osm_type": "node",
    "scraped_at": "2026-03-06T09:52:14.573875"
  },
  {
    "category": "pubs",
    "name": "Coach & Horses",
    "type": "pub",
    "cuisine": "",
    "address": "Preston, PR4 1PD",
    "postcode": "PR4 1PD",
    "town": "Preston",
    "latitude": 53.7544009,
    "longitude": -2.8654417,
    "phone": "",
    "website": "",
    "opening_hours": "",
    "stars": "",
    "wheelchair": "",
    "osm_id": 976591275,
    "osm_type": "node",
    "scraped_at": "2026-03-06T09:52:14.573877"
  },
  {
    "category": "pubs",
    "name": "The Shepherds Inn",
    "type": "pub",
    "cuisine": "",
    "address": "",
    "postcode": "",
    "town": "",
    "latitude": 53.6993241,
    "longitude": -2.2990627,
    "phone": "",
    "website": "",
    "opening_hours": "",
    "stars": "",
    "wheelchair": "",
    "osm_id": 980781246,
    "osm_type": "node",
    "scraped_at": "2026-03-06T09:52:14.573880"
  },
  {
    "category": "pubs",
    "name": "The Old House at Home",
    "type": "pub",
    "cuisine": "",
    "address": "",
    "postcode": "",
    "town": "",
    "latitude": 53.7041903,
    "longitude": -2.2816995,
    "phone": "",
    "website": "",
    "opening_hours": "",
    "stars": "",
    "wheelchair": "",
    "osm_id": 980891849,
    "osm_type": "node",
    "scraped_at": "2026-03-06T09:52:14.573882"
  },
  {
    "category": "pubs",
    "name": "Madisons",
    "type": "pub",
    "cuisine": "",
    "address": "",
    "postcode": "",
    "town": "",
    "latitude": 53.7046603,
    "longitude": -2.2860769,
    "phone": "",
    "website": "",
    "opening_hours": "",
    "stars": "",
    "wheelchair": "",
    "osm_id": 980893167,
    "osm_type": "node",
    "scraped_at": "2026-03-06T09:52:14.573883"
  },
  {
    "category": "pubs",
    "name": "Bee's Knee's",
    "type": "pub",
    "cuisine": "",
    "address": "",
    "postcode": "",
    "town": "",
    "latitude": 53.7009131,
    "longitude": -2.2841135,
    "phone": "",
    "website": "",
    "opening_hours": "",
    "stars": "",
    "wheelchair": "",
    "osm_id": 980950032,
    "osm_type": "node",
    "scraped_at": "2026-03-06T09:52:14.573885"
  },
  {
    "category": "pubs",
    "name": "The Queens Arms",
    "type": "pub",
    "cuisine": "",
    "address": "",
    "postcode": "",
    "town": "",
    "latitude": 53.7007985,
    "longitude": -2.2873567,
    "phone": "",
    "website": "",
    "opening_hours": "",
    "stars": "",
    "wheelchair": "",
    "osm_id": 980959154,
    "osm_type": "node",
    "scraped_at": "2026-03-06T09:52:14.573887"
  },
  {
    "category": "pubs",
    "name": "Casked",
    "type": "pub",
    "cuisine": "",
    "address": "14-16, Bury Road, Rawtenstall",
    "postcode": "",
    "town": "Rawtenstall",
    "latitude": 53.7002334,
    "longitude": -2.2880134,
    "phone": "",
    "website": "",
    "opening_hours": "",
    "stars": "",
    "wheelchair": "",
    "osm_id": 980963327,
    "osm_type": "node",
    "scraped_at": "2026-03-06T09:52:14.573889"
  },
  {
    "category": "pubs",
    "name": "Rawtenstall Cricket Club",
    "type": "bar",
    "cuisine": "",
    "address": "",
    "postcode": "",
    "town": "",
    "latitude": 53.7020055,
    "longitude": -2.282311,
    "phone": "",
    "website": "",
    "opening_hours": "",
    "stars": "",
    "wheelchair": "",
    "osm_id": 980966378,
    "osm_type": "node",
    "scraped_at": "2026-03-06T09:52:14.573890"
  },
  {
    "category": "pubs",
    "name": "Mint Cafe",
    "type": "bar",
    "cuisine": "",
    "address": "34, Church Street, Lancaster, LA1 1LH",
    "postcode": "LA1 1LH",
    "town": "Lancaster",
    "latitude": 54.0496736,
    "longitude": -2.8004245,
    "phone": "",
    "website": "",
    "opening_hours": "Mo-Th 18:00-02:00, Fr,Sa 17:00-02:00, Su 20:00-02:00",
    "stars": "",
    "wheelchair": "",
    "osm_id": 985894771,
    "osm_type": "node",
    "scraped_at": "2026-03-06T09:52:14.573892"
  },
  {
    "category": "pubs",
    "name": "The Staggered Inn",
    "type": "pub",
    "cuisine": "",
    "address": "James Street, Lancaster, LA1 1UP",
    "postcode": "LA1 1UP",
    "town": "Lancaster",
    "latitude": 54.0482688,
    "longitude": -2.8006281,
    "phone": "",
    "website": "",
    "opening_hours": "",
    "stars": "",
    "wheelchair": "",
    "osm_id": 985894819,
    "osm_type": "node",
    "scraped_at": "2026-03-06T09:52:14.573894"
  },
  {
    "category": "pubs",
    "name": "The Intack Inn",
    "type": "pub",
    "cuisine": "",
    "address": "361, Accrington Road, Blackburn, BB1 2AL",
    "postcode": "BB1 2AL",
    "town": "Blackburn",
    "latitude": 53.7479568,
    "longitude": -2.4438309,
    "phone": "",
    "website": "",
    "opening_hours": "",
    "stars": "",
    "wheelchair": "",
    "osm_id": 1020995743,
    "osm_type": "node",
    "scraped_at": "2026-03-06T09:52:14.573896"
  },
  {
    "category": "pubs",
    "name": "The Lord Nelson",
    "type": "pub",
    "cuisine": "",
    "address": "7, Nelson Street, Morecambe, LA4 5EF",
    "postcode": "LA4 5EF",
    "town": "Morecambe",
    "latitude": 54.0729873,
    "longitude": -2.8652214,
    "phone": "",
    "website": "",
    "opening_hours": "",
    "stars": "",
    "wheelchair": "",
    "osm_id": 1108954646,
    "osm_type": "node",
    "scraped_at": "2026-03-06T09:52:14.573901"
  },
  {
    "category": "pubs",
    "name": "The Chieftain",
    "type": "pub",
    "cuisine": "",
    "address": "24, Pedder Street, Morecambe, LA4 5DZ",
    "postcode": "LA4 5DZ",
    "town": "Morecambe",
    "latitude": 54.072722,
    "longitude": -2.8647074,
    "phone": "",
    "website": "https://www.craftunionpubs.com/chieftain-hotel-morecambe",
    "opening_hours": "",
    "stars": "",
    "wheelchair": "",
    "osm_id": 1110148696,
    "osm_type": "node",
    "scraped_at": "2026-03-06T09:52:14.573903"
  },
  {
    "category": "pubs",
    "name": "Derby Arms",
    "type": "pub",
    "cuisine": "",
    "address": "Preston, PR4 0TJ",
    "postcode": "PR4 0TJ",
    "town": "Preston",
    "latitude": 53.8305059,
    "longitude": -2.8143516,
    "phone": "",
    "website": "",
    "opening_hours": "",
    "stars": "",
    "wheelchair": "",
    "osm_id": 1111400644,
    "osm_type": "node",
    "scraped_at": "2026-03-06T09:52:14.573904"
  },
  {
    "category": "pubs",
    "name": "Palatine",
    "type": "pub",
    "cuisine": "fish_and_chips",
    "address": "3, Queen Street, Morecambe, LA4 5EQ",
    "postcode": "LA4 5EQ",
    "town": "Morecambe",
    "latitude": 54.0732552,
    "longitude": -2.8654318,
    "phone": "",
    "website": "",
    "opening_hours": "",
    "stars": "",
    "wheelchair": "",
    "osm_id": 1113600919,
    "osm_type": "node",
    "scraped_at": "2026-03-06T09:52:14.573906"
  },
  {
    "category": "pubs",
    "name": "Kings Arms",
    "type": "pub",
    "cuisine": "",
    "address": "248, Marine Road Central, Morecambe, LA4 4BJ",
    "postcode": "LA4 4BJ",
    "town": "Morecambe",
    "latitude": 54.072629,
    "longitude": -2.867505,
    "phone": "",
    "website": "https://www.greatukpubs.co.uk/kings-arms-morecambe",
    "opening_hours": "",
    "stars": "",
    "wheelchair": "",
    "osm_id": 1116465207,
    "osm_type": "node",
    "scraped_at": "2026-03-06T09:52:14.573908"
  },
  {
    "category": "pubs",
    "name": "White Horse",
    "type": "pub",
    "cuisine": "",
    "address": "18, Hall Street, Bury, BL8 3BD",
    "postcode": "BL8 3BD",
    "town": "Bury",
    "latitude": 53.6025774,
    "longitude": -2.3402543,
    "phone": "",
    "website": "",
    "opening_hours": "",
    "stars": "",
    "wheelchair": "limited",
    "osm_id": 1139455455,
    "osm_type": "node",
    "scraped_at": "2026-03-06T09:52:14.573910"
  },
  {
    "category": "pubs",
    "name": "Victoria Hotel",
    "type": "pub",
    "cuisine": "",
    "address": "12-14, Hall Street, Bury, BL8 3BD",
    "postcode": "BL8 3BD",
    "town": "Bury",
    "latitude": 53.6022687,
    "longitude": -2.3397662,
    "phone": "",
    "website": "",
    "opening_hours": "",
    "stars": "",
    "wheelchair": "limited",
    "osm_id": 1139455462,
    "osm_type": "node",
    "scraped_at": "2026-03-06T09:52:14.573911"
  },