category,name,type,cuisine,address,postcode,town,latitude,longitude,phone,website,opening_hours,stars,wheelchair,osm_id,osm_type,scraped_at
restaurants,Luciano's at the Millstone,restaurant,,"Bolton Road, Chorley, PR6 9HJ",PR6 9HJ,Chorley,53.6108031,-2.5755983,,,"Su-Th 12:00-21:00; Fr,Sa 12:00-22:00",,,22464388,node,2026-03-06T09:39:44.351399
restaurants,The Elephant,restaurant,indian,,,,53.6624413,-2.7188336,,,,,,22534046,node,2026-03-06T09:39:44.351418
restaurants,Retreat,restaurant,,"19, Church Street, Chorley, PR7 4EX",PR7 4EX,Chorley,53.6136457,-2.6042284,,,,,,24361691,node,2026-03-06T09:39:44.351423
restaurants,Raj,restaurant,indian,"106, Bolton Road, Blackburn, BB2 3PZ",BB2 3PZ,Blackburn,53.7380547,-2.4882661,,,,,,28892614,node,2026-03-06T09:39:44.351425
restaurants,Calypsos,restaurant,caribbean,,,,53.7491557,-2.4728603,,,,,,29356017,node,2026-03-06T09:39:44.351428
restaurants,Sagar Premier Indian Restaurant,restaurant,indian,"Clayton Brook Road, Preston, PR5 8HZ",PR5 8HZ,Preston,53.7173069,-2.638025,,,,,,31532928,node,2026-03-06T09:39:44.351430
restaurants,McDonald's,fast_food,burger,"Preston, PR5 4AW",PR5 4AW,Preston,53.7479571,-2.6782625,+44 1772 886817,https://www.mcdonalds.com/gb/en-gb/location/preston/capitol-centre/the-capitol-centre-retail-park/8260482.html,24/7,,,31532985,node,2026-03-06T09:39:44.351433
restaurants,Unnamed,fast_food,indian,"48-52, Darwen Street, Blackburn",,Blackburn,53.7461888,-2.4825936,,,,,,31692707,node,2026-03-06T09:39:44.351435
restaurants,EastZEast,restaurant,,"9, Church Street, Preston, PR1 3BQ",PR1 3BQ,Preston,53.7588248,-2.6966297,+44 1772 200084,https://eastzeast.com/,,,,32030719,node,2026-03-06T09:39:44.351438
restaurants,Manjaros,restaurant,,"79-81, London Road, Preston, PR1 4BA",PR1 4BA,Preston,53.7586303,-2.6845412,,,,,,32532694,node,2026-03-06T09:39:44.351445
restaurants,Elliot's Bistro,restaurant,,"200, Preston Road, Chorley, PR6 7HW",PR6 7HW,Chorley,53.687537,-2.6391563,,,,,,36662980,node,2026-03-06T09:39:44.351447
restaurants,The Village Fish Bar,fast_food,fish_and_chips,"15, Poplar Avenue, Preston, PR5 6JJ",PR5 6JJ,Preston,53.731258,-2.6559144,,,,,,36662985,node,2026-03-06T09:39:44.351448
restaurants,The Foundry Tap & Kitchen,restaurant,fish,"631, Livesey Branch Road, Blackburn, BB2 5DQ",BB2 5DQ,Blackburn,53.7227457,-2.5319742,,,,,,36681907,node,2026-03-06T09:39:44.351450
restaurants,Azeem's,restaurant,indian,,,,53.7463525,-2.4843916,,,,,,49343673,node,2026-03-06T09:39:44.351452
restaurants,McDonald's,fast_food,burger,"21-23, King William Street, Blackburn, BB1 7DJ",BB1 7DJ,Blackburn,53.7483502,-2.4839543,+44 1254 54167,https://www.mcdonalds.com/gb/en-gb/location/blackburn/blackburn/2123-king-william-street/8260146.html,Mo-Su 07:00-21:00,,limited,60038394,node,2026-03-06T09:39:44.351455
restaurants,Armaans,restaurant,,,,,53.7482214,-2.4910194,,,,,,61817138,node,2026-03-06T09:39:44.351457
restaurants,Bellavista,restaurant,italian,"Wildhouse Lane, OL16 3JW",OL16 3JW,,53.6192474,-2.1113895,+44 1706 342479,,,,,245454847,node,2026-03-06T09:39:44.351459
restaurants,Miller & Carter,restaurant,steak,"Brandlesholme Road, Bury, BL8 4DS",BL8 4DS,Bury,53.6247224,-2.3375285,,https://www.millerandcarter.co.uk/restaurants/north-west/millerandcartergreenmount#/,Mo-Su 12:00-23:00,,yes,256400410,node,2026-03-06T09:39:44.351461
restaurants,Subway,fast_food,sandwich,"23, Union Street, Accrington, BB5 1PL",BB5 1PL,Accrington,53.753873,-2.3662625,,https://restaurants.subway.com/united-kingdom/en/accrington/23-union-st,,,yes,268514291,node,2026-03-06T09:39:44.351611
restaurants,The Inn at Whitewell,restaurant,,"Clitheroe, BB7 3AT",BB7 3AT,Clitheroe,53.9171897,-2.5205053,+44 1200 448222,https://www.innatwhitewell.com/,,,,268520842,node,2026-03-06T09:39:44.351616
restaurants,Trattoria San Marco,restaurant,,"237, Liverpool Old Road, Preston, PR4 4RJ",PR4 4RJ,Preston,53.6962167,-2.8107776,,,,,,292728697,node,2026-03-06T09:39:44.351618
restaurants,The Hawthornes,restaurant,,,,,53.6007555,-2.5868142,,http://www.thehawthornsblackrod.co.uk/,,,,370684721,node,2026-03-06T09:39:44.351622
restaurants,Barton Bangla Brasserie,restaurant,indian,"913, Garstang Road, PR3 5AB",PR3 5AB,,53.838195,-2.7397636,+44 1995 640236,https://bartonbanglabrasserie.co.uk/,17:00-23:00,,,390544210,node,2026-03-06T09:39:44.351624
restaurants,Sai Surbhi,restaurant,,"323-325, Garstang Road, PR2 9UP",PR2 9UP,,53.7915714,-2.7139872,+44 1772 715000,https://saisurbhipreston.co.uk/,,,,390544214,node,2026-03-06T09:39:44.351626
restaurants,Subway,fast_food,sandwich,"85, Fishergate, Preston, PR1 2NJ",PR1 2NJ,Preston,53.7576723,-2.7046138,,https://restaurants.subway.com/united-kingdom/en/preston/85-fishergate,,,,412766871,node,2026-03-06T09:39:44.351628
restaurants,Jade Garden,restaurant,,,,,53.7510357,-2.3612311,,,,,,442891942,node,2026-03-06T09:39:44.351630
restaurants,Flax Moss Chinese Chippy,fast_food,,,,,53.6950611,-2.3277884,,,,,,481608142,node,2026-03-06T09:39:44.351632
restaurants,Helmshore Chip Shop,fast_food,,,,,53.6902673,-2.3263433,,,,,,481608275,node,2026-03-06T09:39:44.351634
restaurants,Royal Spice,restaurant,asian,"Market Place, Settle, BD24 9EJ",BD24 9EJ,Settle,54.0689276,-2.2762512,+44 1729 822901,,,,,486270585,node,2026-03-06T09:39:44.351636
restaurants,The Nettle,restaurant,,"17, Market Place, Settle, BD24 9ED",BD24 9ED,Settle,54.0685102,-2.2772989,,,,,,486270598,node,2026-03-06T09:39:44.351639
restaurants,The Fisherman,restaurant,fish_and_chips,"16, Church Street, Settle, BD24 9JE",BD24 9JE,Settle,54.0696915,-2.2774096,+44 1729 823297,,,,,486270670,node,2026-03-06T09:39:44.351641
restaurants,Hickory’s Smokehouse,restaurant,,"86, Liverpool Road, Preston, PR4 5SL",PR4 5SL,Preston,53.7348825,-2.7607155,,,,,,486628688,node,2026-03-06T09:39:44.351643
restaurants,Greggs,fast_food,sandwich;bakery,"8, Alexandra Square, Bailrigg, Lancaster, LA1 4XX",LA1 4XX,"Bailrigg, Lancaster",54.0103628,-2.7846304,,https://www.greggs.co.uk/shop-finder?shop-code=1086,Mo-Fr 07:00-21:00; Sa 08:00-21:00; Su 09:00-17:00,,yes,534469126,node,2026-03-06T09:39:44.351645
restaurants,Salvatores,restaurant,,,,,53.7748358,-2.8444608,,,,,,559812586,node,2026-03-06T09:39:44.351647
restaurants,Dante's,restaurant,,,,,53.7017976,-2.6393017,,,,,,582894684,node,2026-03-06T09:39:44.351649
restaurants,Friends Bistro,fast_food,chicken,"Bailrigg Lane, Lancaster, LA1 4YW",LA1 4YW,Lancaster,54.0099648,-2.7846639,,,,,,622043176,node,2026-03-06T09:39:44.351650
restaurants,Sultan of Lancaster Experience,restaurant,indian,"Edward Roberts Court, Lancaster, LA1 4YG",LA1 4YG,Lancaster,54.0099855,-2.7849271,,,,,yes,622043186,node,2026-03-06T09:39:44.351652
restaurants,Hamadan,restaurant,indian,"1-3, Inglewhite Road, PR3 3JR",PR3 3JR,,53.8332826,-2.6068487,+44 1772 786201,,Mo-Sa 17:30-23:00; Su 16:00-23:00,,,626107980,node,2026-03-06T09:39:44.351654
restaurants,Amonbagh,fast_food,indian,"2, Sharoe Green Lane, Preston, PR2 8ED",PR2 8ED,Preston,53.7787951,-2.6976619,,,,,,629545615,node,2026-03-06T09:39:44.351656
restaurants,Mr Chipps,fast_food,,"14, Church Street, Blackburn, BB6 7NF",BB6 7NF,Blackburn,53.7863772,-2.4078056,,,,,,632222348,node,2026-03-06T09:39:44.351665
restaurants,Clayton Street Chippy,fast_food,,"7-9, Clayton Street, Blackburn, BB6 7AQ",BB6 7AQ,Blackburn,53.7859661,-2.4045786,,,,,,632445730,node,2026-03-06T09:39:44.351666
restaurants,The Cake Shop,fast_food,,"14, Saint Huberts Street, Blackburn, BB6 7BE",BB6 7BE,Blackburn,53.7857338,-2.4021323,,,,,,632445732,node,2026-03-06T09:39:44.351668
restaurants,Pizza_Dome,fast_food,,"27, Blackburn Road, Blackburn, BB6 7DF",BB6 7DF,Blackburn,53.7851925,-2.4084614,,,,,,633370214,node,2026-03-06T09:39:44.351670
restaurants,Toni's Pizza,fast_food,,,,,53.7848986,-2.4086031,,,,,,633370224,node,2026-03-06T09:39:44.351671
restaurants,Wongs Chippy,fast_food,,,,,53.7841387,-2.4092304,,,,,,633370231,node,2026-03-06T09:39:44.351673
restaurants,The Calfs Head,restaurant,,,,,53.8806807,-2.3535785,,,,,,634340811,node,2026-03-06T09:39:44.351675
restaurants,The Dog and Otter,restaurant,,"Cliffe Lane, Blackburn, BB6 7PG",BB6 7PG,Blackburn,53.7929274,-2.4105541,,,,,,634360683,node,2026-03-06T09:39:44.351676
restaurants,McDonald's,fast_food,burger,"10-12, Cheapside, Lancaster, LA1 1LZ",LA1 1LZ,Lancaster,54.0492347,-2.8000369,+44 1524 661900,https://www.mcdonalds.com/gb/en-gb/location/lancaster/lancaster---cheapside/1014-cheapside/8260164.html,Mo-Su 00:00-24:00,,yes,636106607,node,2026-03-06T09:39:44.351678
restaurants,Checcos,restaurant,,,,,53.7970077,-2.3874009,,,,,,637123581,node,2026-03-06T09:39:44.351680
restaurants,Game Cock,restaurant,,"8, Whalley Road, Blackburn, BB6 7UH",BB6 7UH,Blackburn,53.8007285,-2.388391,,,,,,637246814,node,2026-03-06T09:39:44.351683
restaurants,Happy Valley,fast_food,fish_and_chips;chinese,"3, Severn Drive, Preston, PR5 4TD",PR5 4TD,Preston,53.7340636,-2.6701496,,,"Tu-Sa 11:45-13:15,17:00-21:30; Su 17:00-21:30",,,638350280,node,2026-03-06T09:39:44.351685
restaurants,Kongs City,restaurant,,,,,53.7866205,-2.4078742,,,,,,639192067,node,2026-03-06T09:39:44.351687
restaurants,Grill Shack,fast_food,pizza;kebab;burger,"172, Deepdale Road, Preston, PR1 6QA",PR1 6QA,Preston,53.7671145,-2.6914496,,https://prestongrillshack.com/order-now,,,,643431460,node,2026-03-06T09:39:44.351689
restaurants,The Spread Eagle,restaurant,,,,,53.9148534,-2.3418218,,,,,,651726907,node,2026-03-06T09:39:44.351691
restaurants,Sunny Chinese Chippy,fast_food,chinese,,,,53.7682012,-2.4158793,+44 1254 882591,,,,,658618237,node,2026-03-06T09:39:44.351695
restaurants,Chicken Shop,fast_food,,"44, Queen Street, Blackburn, BB6 7QQ",BB6 7QQ,Blackburn,53.7861921,-2.4053466,,,,,,659018177,node,2026-03-06T09:39:44.351697
restaurants,Pizza Ranch,fast_food,pizza,"9, Barnes Square, Accrington, BB5 5NX",BB5 5NX,Accrington,53.7747994,-2.3848264,,,,,,660191066,node,2026-03-06T09:39:44.351698
restaurants,Sparth Manor,restaurant,,"Sparth Road, Accrington, BB5 5QA",BB5 5QA,Accrington,53.7789018,-2.3865438,,,,,,660191077,node,2026-03-06T09:39:44.351700
restaurants,Milton Street Chippy,fast_food,,"4, Milton Street, Accrington, BB5 5QE",BB5 5QE,Accrington,53.7784352,-2.3844624,,,,,,660191080,node,2026-03-06T09:39:44.351702
restaurants,Church Chippy,fast_food,,,,,53.755164,-2.3909716,,,,,,660197485,node,2026-03-06T09:39:44.351705
restaurants,Balti Stan,restaurant,,"217-219, Whalley Road, Accrington, BB5 5HD",BB5 5HD,Accrington,53.7726142,-2.3827792,,,,,,660197993,node,2026-03-06T09:39:44.351707
restaurants,The Apricot Meringue,restaurant,,,,,53.8731332,-2.3926528,,,,,,661059972,node,2026-03-06T09:39:44.351709
restaurants,Brook Street Chip Shop,fast_food,,"7, Brook Street, Blackburn, BB1 4DL",BB1 4DL,Blackburn,53.7690255,-2.4153299,,,,,,662054770,node,2026-03-06T09:39:44.351711
restaurants,Atlantic Chip Shop,fast_food,,,,,53.7678016,-2.4139512,,,,,,662054810,node,2026-03-06T09:39:44.351712
restaurants,Balti House,restaurant,,"1-3, High Street, Blackburn, BB1 4JZ",BB1 4JZ,Blackburn,53.7684025,-2.4125216,,,,,,662054849,node,2026-03-06T09:39:44.351714
restaurants,Thyme and Plaice,restaurant,,"Wigan Lane, Chorley, PR7 4BN",PR7 4BN,Chorley,53.6102484,-2.6308992,,,,,,662762026,node,2026-03-06T09:39:44.351716
restaurants,Fredericks Ice Cream,fast_food,,"Bolton Road, Chorley, PR7 4AL",PR7 4AL,Chorley,53.6331974,-2.6130178,+44 1257 263154,https://www.fredericksicecream.co.uk/locations/,Mo-Su 09:00-22:00,,,662820655,node,2026-03-06T09:39:44.351718
restaurants,Sylhet,restaurant,,,,,53.8038928,-2.4482633,,,,,,662926225,node,2026-03-06T09:39:44.351720
restaurants,Cantonese Chef,fast_food,,"63, Blackburn Road, Blackburn, BB6 7DF",BB6 7DF,Blackburn,53.7843034,-2.4089014,,,,,,663555964,node,2026-03-06T09:39:44.351721
restaurants,Kebab Cottage,fast_food,,,,,53.7856862,-2.4086121,,,,,,663555968,node,2026-03-06T09:39:44.351725
restaurants,Chippy Bobs,fast_food,,,,,53.7859905,-2.4067579,,,,,,663555974,node,2026-03-06T09:39:44.351726
restaurants,Singleton's Chip Shop,fast_food,english,,,,53.6179464,-2.6733298,,,,,,663649325,node,2026-03-06T09:39:44.351728
restaurants,Amico Mio,restaurant,italian,"49, King Street, Whalley, BB7 9SP",BB7 9SP,Whalley,53.8208602,-2.4066806,,,,,,664554036,node,2026-03-06T09:39:44.351730
restaurants,Romero Whalley,fast_food,pizza;burger;kebab;chicken,"97, King Street, Whalley, BB7 9SP",BB7 9SP,Whalley,53.8205668,-2.4066576,,,,,no,664554100,node,2026-03-06T09:39:44.351732
restaurants,Regent House,fast_food,chinese;cantonese,"30, King Street, Whalley, BB7 9SL",BB7 9SL,Whalley,53.8200875,-2.4063591,,,,,,664554138,node,2026-03-06T09:39:44.351734
restaurants,The Friary,fast_food,fish_and_chips,"34, King Street, Whalley, BB7 9SL",BB7 9SL,Whalley,53.8201797,-2.4063627,,,,,,664554139,node,2026-03-06T09:39:44.351736
restaurants,King Street Kitchen,restaurant,bistro,"73, King Street, Whalley, BB7 9SW",BB7 9SW,Whalley,53.8219851,-2.4069242,,http://kingstreetbistro.co.uk/,,,,664572801,node,2026-03-06T09:39:44.351739
restaurants,McDonald's,fast_food,burger,"1, Burnham Gate, Burnley, BB11 4SL",BB11 4SL,Burnley,53.7868488,-2.2502271,+44 1282 439159,https://www.mcdonalds.com/gb/en-gb/location/burnley/burnley---burnham-gate/1-burnham-gate/8261126.html,Mo-Su 00:00-24:00,,,665876481,node,2026-03-06T09:39:44.351742
restaurants,The Plough Inn,restaurant,,"Skipton, BD23 4RJ",BD23 4RJ,Skipton,54.0082033,-2.2918964,,,,,,667362600,node,2026-03-06T09:39:44.351744
restaurants,China Star,fast_food,chinese,,,,53.7481443,-2.3897153,+44 1254 845578,http://chinastaraccrington.co.uk/,,,yes,669178104,node,2026-03-06T09:39:44.351748
restaurants,Jade Fountain,fast_food,,,,,53.8924925,-2.3535991,,,,,,669561066,node,2026-03-06T09:39:44.351750
restaurants,Great Land,restaurant,,,,,53.8420147,-2.399981,,,,,,671561038,node,2026-03-06T09:39:44.351752
restaurants,Greendale,restaurant,,,,,53.8946997,-2.3385973,,,,,,671561133,node,2026-03-06T09:39:44.351754
restaurants,The Duke of York,restaurant,,,,,53.9051883,-2.3682856,,,,,,672697271,node,2026-03-06T09:39:44.351755
restaurants,The Buck Inn,restaurant,,,,,53.9050872,-2.367599,,,,,,672697273,node,2026-03-06T09:39:44.351757
restaurants,The Red Pump Inn,restaurant,,"Clitheroe Road, Clitheroe, BB7 3DA",BB7 3DA,Clitheroe,53.88393,-2.4641905,+44 1254 826227,https://www.theredpumpinn.co.uk/,"We,Th 12:00-14:00, 18:00-20:30; Fr,Sa 12:00-14:00, 18:00-21:00; Su 12:00-17:30; PH off",,,674111424,node,2026-03-06T09:39:44.351759
restaurants,The Eagle at Barrow,restaurant,,,,,53.8339545,-2.4039941,,,,,,676770103,node,2026-03-06T09:39:44.351761
restaurants,Jesun,fast_food,fish_and_chips;oriental,"59, Woone Lane, Clitheroe, BB7 1BJ",BB7 1BJ,Clitheroe,53.8665812,-2.3967475,+441200428323,,,,,678476302,node,2026-03-06T09:39:44.351763
restaurants,Castle Chippy,fast_food,fish_and_chips,,,,53.8697985,-2.3921309,+441200443066,,,,,697304323,node,2026-03-06T09:39:44.351766
restaurants,Sues Chip Shop,fast_food,,,,,53.8680067,-2.3932286,,,,,,697304324,node,2026-03-06T09:39:44.351770
restaurants,Jaffa’s,fast_food,syrian;pizza;kebab;burger,"16, Whalley Road, Clitheroe, BB7 1AW",BB7 1AW,Clitheroe,53.8681379,-2.3931922,+441200 859441,https://jaffasclitheroe.co.uk/,,,,697304325,node,2026-03-06T09:39:44.351772
restaurants,Franco's,restaurant,italian,,,,53.8139093,-2.6080431,,,,,,702204159,node,2026-03-06T09:39:44.351773
restaurants,Evergreen,fast_food,chinese;fish_and_chips,"80, Waterloo Road, Clitheroe, BB7 1NS",BB7 1NS,Clitheroe,53.8744901,-2.3864251,+44 1200 424372,,,,,703197611,node,2026-03-06T09:39:44.351775
restaurants,Waddington Road Chippy,fast_food,fish_and_chips,,,,53.8750834,-2.3910105,+44 1200 428081,,,,,703197616,node,2026-03-06T09:39:44.351777
restaurants,Ribble Tandoori,fast_food,indian,"19, Waddington Road, Clitheroe, BB7 2HJ",BB7 2HJ,Clitheroe,53.8750309,-2.3908395,+44 1200 443368,http://www.ribbletandoori.co.uk/,,,,703197617,node,2026-03-06T09:39:44.351779
restaurants,Rumbletums,fast_food,,,,,53.8752079,-2.3885379,,,,,,703197620,node,2026-03-06T09:39:44.351780
restaurants,Roosterz clitheroe,fast_food,,,,,53.8674347,-2.3931324,,,,,,703219682,node,2026-03-06T09:39:44.351782
restaurants,Delica 44,fast_food,,,,,53.8675731,-2.3933858,,,,,,703219743,node,2026-03-06T09:39:44.351783
restaurants,Whalley Road Chippy,fast_food,,,,,53.8667137,-2.3939211,,,,,,703219746,node,2026-03-06T09:39:44.351785
restaurants,Tiger Lounge,restaurant,,,,,53.8663965,-2.3941875,,,,,,703219759,node,2026-03-06T09:39:44.351788
restaurants,Pizza House,fast_food,pizza,"65, Whalley Road, Clitheroe, BB7 1EE",BB7 1EE,Clitheroe,53.8664478,-2.393765,,,,,,703219763,node,2026-03-06T09:39:44.351790
restaurants,Domino's,fast_food,pizza,,,,53.6975876,-2.6907027,,https://www.dominos.co.uk/pizza-near-me/leyland/unit-3-churchill-way,,,,705262112,node,2026-03-06T09:39:44.351792
restaurants,Kims Fish Bar,fast_food,,"70, Glebe Street, Blackburn, BB6 7AA",BB6 7AA,Blackburn,53.7838983,-2.405587,,,,,,723090858,node,2026-03-06T09:39:44.351794
restaurants,Wheatsheaf,restaurant,,,,,53.6614032,-2.7747119,,,,,,723918998,node,2026-03-06T09:39:44.351796
restaurants,Milano Pizzas,fast_food,italian_pizza;kebab,"6, Church Street, Settle, BD24 9JE",BD24 9JE,Settle,54.0694714,-2.2773339,+44 1729 824411,,,,,735023360,node,2026-03-06T09:39:44.351798
restaurants,The Shambles Fish Bar,restaurant,fish_and_chips,"Market Place, Settle, BD24 9EH",BD24 9EH,Settle,54.0689036,-2.2766999,,,,,,735122829,node,2026-03-06T09:39:44.351800
restaurants,Matteo’s Settle Italian,restaurant,italian,"5-6, Market Place, Settle, BD24 9EH",BD24 9EH,Settle,54.0687635,-2.2767053,,https://settleitalian.co.uk,,,,735127338,node,2026-03-06T09:39:44.351801
restaurants,McDonald's,fast_food,burger,"Kingsway, OL16 5AF",OL16 5AF,,53.6148621,-2.1300123,+44 1706 658459,https://www.mcdonalds.com/gb/en-gb/location/rochdale/rochdale---kingsway-retail-park/1-kingsway-retail-park/8260986.html,Mo-Su 06:00-24:00,,,778457905,node,2026-03-06T09:39:44.351804
restaurants,The Tiger,restaurant,,"School Lane, Chorley, PR6 8QP",PR6 8QP,Chorley,53.688192,-2.5678264,,,,,,942803344,node,2026-03-06T09:39:44.351805
restaurants,Fat Twins,fast_food,,"15-17, Manchester Road, Preston",,Preston,53.7591154,-2.6939392,,,,,,948545571,node,2026-03-06T09:39:44.351809
restaurants,Neptune Chip Shop,fast_food,fish_and_chips,"18, Scotforth Road, Lancaster, LA1 4ST",LA1 4ST,Lancaster,54.0343214,-2.7952454,,,"Mo-Sa 11:30-14:00,18:30-21:00",,,977627537,node,2026-03-06T09:39:44.351811
restaurants,Nino's,restaurant,italian,"245, Bacup Road, Rossendale, BB4 7PA",BB4 7PA,Rossendale,53.7006881,-2.2767334,,https://ninosrawtenstall.com,Tu-Th 17:00-22:00; Fr-Sa 17:00-22:30; Su 13:00-21:00,,,981072979,node,2026-03-06T09:39:44.351813
restaurants,Pizzetta Republic,fast_food,pizza,"75-77, North Road, Lancaster, LA1 1LU",LA1 1LU,Lancaster,54.0496485,-2.7996568,,,,,,985894753,node,2026-03-06T09:39:44.351815
restaurants,KFC,fast_food,chicken,"110, Penny Street, Lancaster, LA1 1XN",LA1 1XN,Lancaster,54.045797,-2.8000948,,https://www.kfc.co.uk/kfc-near-me/lancaster-penny-street,,,,985894757,node,2026-03-06T09:39:44.351817
restaurants,Flames,fast_food,pizza;burger;chicken;kebab,"1-2, Rosemary Lane, Lancaster, LA1 1NH",LA1 1NH,Lancaster,54.0501746,-2.7988296,+44 1524 382399,https://flameslancaster.co.uk/,,,,985894782,node,2026-03-06T09:39:44.351818
restaurants,Bella Italia,restaurant,italian,"26-28, Church Street, Lancaster, LA1 1LH",LA1 1LH,Lancaster,54.0495895,-2.799961,+44 1524 969 268,https://www.bellaitalia.co.uk/restaurants/lancaster/lancaster-church-street,Mo-Fr 11:30-22:00; Sa 11:30-23:00; Su 11:30-22:00,,,985894799,node,2026-03-06T09:39:44.351820
restaurants,Two Thai,restaurant,thai,"6, China Street, Lancaster, LA1 1EX",LA1 1EX,Lancaster,54.0489748,-2.8033619,,https://twothai.co.uk/,"17:00-22:00; Fr,Sa 17:00-22:30",,,985894802,node,2026-03-06T09:39:44.351822
restaurants,Napoli Pizzeria and Grill,restaurant,pizza,"31, North Road, Lancaster, LA1 1NS",LA1 1NS,Lancaster,54.0505612,-2.7977792,+44 1524 848880,,,,,985894828,node,2026-03-06T09:39:44.351823
restaurants,Marmara,fast_food,,"13, Brock Street, Lancaster, LA1 1UR",LA1 1UR,Lancaster,54.047543,-2.7990038,,,,,,985894895,node,2026-03-06T09:39:44.351825
restaurants,Marvin's,fast_food,chicken;burger;kebab;pizza,"19, Brock Street, Lancaster, LA1 1UR",LA1 1UR,Lancaster,54.0475463,-2.7987607,,,,,,985894900,node,2026-03-06T09:39:44.351831
restaurants,Masala,fast_food,indian,"6, Clarence Street, Lancaster, LA1 3BG",LA1 3BG,Lancaster,54.0439338,-2.7923101,+44 1524 388744,https://masalalancaster.co.uk/,Mo-Su 17:00-23:00,,,986087902,node,2026-03-06T09:39:44.351835
restaurants,West End Chip Shop,fast_food,seafood,,,,53.7502208,-2.4084682,,,,,,1028298427,node,2026-03-06T09:39:44.351839
restaurants,Jolsa,fast_food,indian,"2, Hallgate, Chorley, PR7 1XA",PR7 1XA,Chorley,53.6616231,-2.6457484,,,,,,1102576626,node,2026-03-06T09:39:44.351841
restaurants,The Morecambe Hotel,restaurant,,"25, Lord Street, Morecambe, LA4 5HX",LA4 5HX,Morecambe,54.0747035,-2.8599554,,,Mo-Su 07:00-23:30,,,1108950642,node,2026-03-06T09:39:44.351843
restaurants,Gizmo's Pizzeria,restaurant,italian,"3, Albert Road, Morecambe, LA4 4HD",LA4 4HD,Morecambe,54.0666407,-2.8794904,,,,,,1109006061,node,2026-03-06T09:39:44.351845
restaurants,New Dragon Town,fast_food,chinese,"19, Albert Road, Morecambe, LA4 4HD",LA4 4HD,Morecambe,54.0662853,-2.8788827,+44 1524 418462,,"We-Su 17:00-21:30; Mo,Tu off",,,1109007923,node,2026-03-06T09:39:44.351847
restaurants,Mumbai Nine,restaurant,indian,"9, Skipton Street, Morecambe, LA4 4AR",LA4 4AR,Morecambe,54.0722652,-2.8686699,,,,,,1110184072,node,2026-03-06T09:39:44.351848
restaurants,Bowerham Chippy,fast_food,fish_and_chips,"2, Coulston Road, Lancaster, LA1 3AE",LA1 3AE,Lancaster,54.0376074,-2.7888932,,,"Mo-Sa 11:30-13:45,16:30-20:30; Su 16:30-20:30",,limited,1111142641,node,2026-03-06T09:39:44.351850
restaurants,Ruth's Cabin,fast_food,,"Coastal Road, Morecambe, LA4 6AJ",LA4 6AJ,Morecambe,54.0819512,-2.8352077,,,,,,1112516637,node,2026-03-06T09:39:44.351852
restaurants,PNP,fast_food,,"Ryelands Road, Lancaster",,Lancaster,54.0585288,-2.8103482,+44 1524 555 857,,,,,1113372109,node,2026-03-06T09:39:44.351856
restaurants,The Honey Tree,restaurant,chinese,"291-294, Marine Road Central, Morecambe, LA4 5BY",LA4 5BY,Morecambe,54.074134,-2.8643702,+44 1524 423860,,,,,1113600965,node,2026-03-06T09:39:44.351858
restaurants,Susan's Pies,fast_food,,"168, Lancaster Road, Morecambe, LA4 5QP",LA4 5QP,Morecambe,54.069575,-2.8511359,,,,,,1116459109,node,2026-03-06T09:39:44.351859
restaurants,Kenny's Chip Shop,fast_food,fish_and_chips,"2, South Grove, Morecambe, LA4 5RL",LA4 5RL,Morecambe,54.0696049,-2.8506826,,,,,,1116459110,node,2026-03-06T09:39:44.351861
restaurants,Mount Spice,fast_food,indian;nepalese,"2, Church Street, Lancaster, LA1 1NP",LA1 1NP,Lancaster,54.0495873,-2.7986328,+44 1524 231444,,Tu-Th 15:00-22:00; Fr-Su 14:00-22:30; Mo off,,,1118096288,node,2026-03-06T09:39:44.351863
restaurants,Domino's,fast_food,pizza,"20, Church Street, Lancaster, LA1 1NP",LA1 1NP,Lancaster,54.0495682,-2.7994411,,https://www.dominos.co.uk/pizza-near-me/lancaster/20-church-street,Mo-Su 11:00-01:00,,yes,1119642518,node,2026-03-06T09:39:44.351864
restaurants,Morecambe Tandoori,restaurant,indian,"47, Marine Road West, Morecambe, LA3 1BZ",LA3 1BZ,Morecambe,54.0660088,-2.8808114,+44 1524 401644,,,,,1121707534,node,2026-03-06T09:39:44.351866
restaurants,The Barn @ Scorton,restaurant,coffee_shop;regional,"The Square, Preston, PR3 1AU",PR3 1AU,Preston,53.932958,-2.7607698,,https://www.plantsandgifts.co.uk/restaurant.php,Mo-Fr 09:00-16:30; Sa 09:00-17:00; Su 10:00-17:00,,,1123151395,node,2026-03-06T09:39:44.351868
restaurants,The Priory,restaurant,,,,,53.9329945,-2.7592475,,,Mo-Su 10:00-16:00,,,1123151398,node,2026-03-06T09:39:44.351870
restaurants,McDonald's,fast_food,burger,,,,53.7250034,-2.3279471,+44 1706 831208,https://www.mcdonalds.com/gb/en-gb/location/rossendale/haslingden---rising-bridge/581-blackburn-road/8260713.html,,,,1223976166,node,2026-03-06T09:39:44.351872
restaurants,Ingol Fish and Chips,fast_food,fish_and_chips,"1, Granton Walk, Preston, PR2 3YX",PR2 3YX,Preston,53.780663,-2.7421648,,,,,,1259590191,node,2026-03-06T09:39:44.351875
restaurants,Rumbles Sandwich Bar,fast_food,sandwich,"7, Granton Walk, Preston, PR2 3YX",PR2 3YX,Preston,53.7805869,-2.7423606,,,,,,1259590236,node,2026-03-06T09:39:44.351877
restaurants,Domino's,fast_food,pizza,"George Street, Chorley, PR7 2BN",PR7 2BN,Chorley,53.6496916,-2.6274047,,https://www.dominos.co.uk/pizza-near-me/chorley/unit-2-chorley-retail-park,,,,1288926391,node,2026-03-06T09:39:44.351879
restaurants,Brookhouse Takeaway,fast_food,chinese;fish_and_chips,"14, Sycamore Road, Brookhouse, LA2 9PB",LA2 9PB,Brookhouse,54.074931,-2.7043317,,,,,,1313850466,node,2026-03-06T09:39:44.351880
restaurants,Fusion Room,restaurant,,,,,53.7617711,-2.7059146,,,,,,1364425627,node,2026-03-06T09:39:44.351882
restaurants,Fish Loves Chips,fast_food,fish_and_chips,,,,53.6022815,-2.8434204,,,,,no,1364926688,node,2026-03-06T09:39:44.351884
restaurants,Kebab & Pizza,fast_food,,"Liverpool Road North, L40 5TN",L40 5TN,,53.6023483,-2.8433883,+44 1704 896989,,Mo-Su 04:30-00:00,,,1364926689,node,2026-03-06T09:39:44.351886
restaurants,The Brunch Bar,fast_food,breakfast,"4, Newton Terrace, Lancaster, LA1 3PB",LA1 3PB,Lancaster,54.0624652,-2.7881193,,,,,,1459329496,node,2026-03-06T09:39:44.351888
restaurants,Eating Plus,fast_food,chinese,"48, Owen Road, Lancaster, LA1 2BN",LA1 2BN,Lancaster,54.0587586,-2.8004777,+44 1524 844985,,"Mo,We-Th,Su 17:00-23:00; Tu off; Fr-Sa 17:00-23:30",,no,1463657056,node,2026-03-06T09:39:44.351890
restaurants,Harbour City,fast_food,fish_and_chips,"16, Elswick Road, Preston, PR2 1NT",PR2 1NT,Preston,53.7662863,-2.7548233,,,,,,1550971923,node,2026-03-06T09:39:44.351891
restaurants,Oliver's Chippy,fast_food,fish_and_chips,,,,53.7505571,-2.8921531,,,,,,1565835143,node,2026-03-06T09:39:44.351896
restaurants,Ocean Fish & Chips,fast_food,fish_and_chips,,,,53.6923405,-2.7310842,,,,,,1607421255,node,2026-03-06T09:39:44.351898
restaurants,Ziggis Fusion Food,fast_food,,,,,53.6923031,-2.7310963,,,,,,1607421459,node,2026-03-06T09:39:44.351900
restaurants,Copper Pot,restaurant,indian,"Sandbrook Way, OL11 1RY",OL11 1RY,,53.6030379,-2.1648975,,https://www.copperpot.com/,,,,1658835682,node,2026-03-06T09:39:44.351901
restaurants,Ziba,fast_food,kebab,"73, Plunginton Road, Preston, PR1 7EN",PR1 7EN,Preston,53.7698405,-2.7112395,,,,,,1662310564,node,2026-03-06T09:39:44.351903
restaurants,Bollywood Cottage,restaurant,indian,"60, High Street, Skipton, BD23 3LX",BD23 3LX,Skipton,53.9832831,-2.1064566,+44 1756 749252,http://www.bollywoodcottage.co.uk/,,,,1664975369,node,2026-03-06T09:39:44.351905
restaurants,Original Bistro French,restaurant,,"21, Chapel Brow, Leyland, PR25 3NH",PR25 3NH,Leyland,53.6974449,-2.6895195,+44 1772 621621,,,,,1684921890,node,2026-03-06T09:39:44.351907
restaurants,Charcoal Grill,fast_food,,"17, Chapel Brow, Leyland, PR25 3NH",PR25 3NH,Leyland,53.6976118,-2.6894425,+44 1772 623 131,,,,,1684921904,node,2026-03-06T09:39:44.351909
restaurants,Romero,fast_food,kebab,"Chapel Brow, Leyland, PR25 3NH",PR25 3NH,Leyland,53.6975599,-2.6894745,+44 1772 621103,,,,,1684921908,node,2026-03-06T09:39:44.351911
restaurants,The Viceroy,restaurant,indian,"3, Golden Hill Lane, Leyland, PR25 3NP",PR25 3NP,Leyland,53.6979578,-2.6897475,+44 1772 62 10 31,,,,,1685117668,node,2026-03-06T09:39:44.351912
restaurants,Golden Phoenix,fast_food,chinese,"4, Chapel Brow, Leyland, PR25 3NE",PR25 3NE,Leyland,53.6976275,-2.6897399,,,,,,1685124402,node,2026-03-06T09:39:44.351916
restaurants,Yum Yum,fast_food,kebab,"14, Chapel Brow, Leyland, PR25 3NE",PR25 3NE,Leyland,53.6974477,-2.6898557,+44 1772 432 999,,,,,1685124405,node,2026-03-06T09:39:44.351917
restaurants,Thindian,fast_food,indian,"18, Chapel Brow, Leyland, PR25 3NE",PR25 3NE,Leyland,53.6973486,-2.6899272,,,,,,1685124408,node,2026-03-06T09:39:44.351919
restaurants,Santas Pizza,fast_food,,,,,53.8399977,-2.2062435,,,,,,1708159317,node,2026-03-06T09:39:44.351921
restaurants,Carlo's,restaurant,italian,"60A, Albert Road, Colne, BB8 0AE",BB8 0AE,Colne,53.8559771,-2.1748916,+44 1282 869682,https://www.facebook.com/carlos.restaurant.colne/,Mo off; Tu-Th 17:00-21:30; Fr-Sa 17:00-22:30; Su 15:00-21:00,,,1708335776,node,2026-03-06T09:39:44.351923
restaurants,McDonald's,fast_food,burger,"North Valley Road, Colne, BB8 9AG",BB8 9AG,Colne,53.859519,-2.1709247,+44 1282 862876,https://www.mcdonalds.com/gb/en-gb/location/colne/colne/north-valley-retail-park/8261157.html,Mo-Su 00:00-24:00,,,1708405847,node,2026-03-06T09:39:44.351924
restaurants,KFC,fast_food,chicken,,,,53.8593735,-2.1716971,,https://www.kfc.co.uk/kfc-near-me/colne-north-valley-road,,,,1708406935,node,2026-03-06T09:39:44.351926
restaurants,Valley chipy,fast_food,fish_and_chips,,,,53.8574309,-2.1772091,,,,,,1708409389,node,2026-03-06T09:39:44.351928
restaurants,Phillips Lane Chippy,fast_food,fish_and_chips;chinese,,,,53.8505267,-2.1889625,,,,,,1708411959,node,2026-03-06T09:39:44.351929
restaurants,Hall street chippy,fast_food,fish_and_chips,"1, Hall Street, Colne, BB8 0DJ",BB8 0DJ,Colne,53.8555689,-2.1742667,,,,,,1708412864,node,2026-03-06T09:39:44.351931
restaurants,Cemetery chippy,fast_food,fish_and_chips,"75, Keighley Road, Colne, BB8 0QF",BB8 0QF,Colne,53.8579308,-2.1587769,,,,,,1708416453,node,2026-03-06T09:39:44.351935
restaurants,Skipton road chippy,fast_food,fish_and_chips,,,,53.8588056,-2.1628458,,,,,,1708419185,node,2026-03-06T09:39:44.351936
restaurants,Barker House Farm,restaurant,,,,,54.0037731,-2.7887705,,,Mo-Su 10:00-22:00,,,1712878589,node,2026-03-06T09:39:44.351938
restaurants,Guan Zi Chinese Restaurant,restaurant,chinese,"George Fox Avenue, Lancaster, LA1 4YJ",LA1 4YJ,Lancaster,54.0075943,-2.7847995,,,,,yes,1717066329,node,2026-03-06T09:39:44.351940
restaurants,Rolls Royce Leisure,restaurant,,"Skipton Road, Barnoldswick, BB18 6HJ",BB18 6HJ,Barnoldswick,53.9245558,-2.176789,,https://rollsleisurebarnoldswick.co.uk/,,,,1717636564,node,2026-03-06T09:39:44.351942
restaurants,Chickin Joint,fast_food,chicken,"135c, Church Street, Preston, PR1 3BT",PR1 3BT,Preston,53.7589107,-2.6956872,,,,,,1862354198,node,2026-03-06T09:39:44.351944
restaurants,Burger King,fast_food,burger,LA2 9DU,LA2 9DU,,53.9617035,-2.7603163,,https://locations.burgerking.co.uk/lancaster/forton-serv.-lancaster-northbound,07:00-23:00,,,1883791381,node,2026-03-06T09:39:44.351945
restaurants,Monte Cristo,restaurant,italian,"125, Henry Street, Accrington, BB5 4EP",BB5 4EP,Accrington,53.7549952,-2.386826,,,,,limited,1885469422,node,2026-03-06T09:39:44.351947
restaurants,JJ Chinese Take Away,fast_food,chinese,,,,53.6466095,-2.626476,,,,,,1900236084,node,2026-03-06T09:39:44.351949
restaurants,N95 Fast Food Indian Take Away,fast_food,indian,,,,53.6479918,-2.6283256,,,,,,1900242800,node,2026-03-06T09:39:44.351951
restaurants,Texas Steakhouse,fast_food,burger,"48, Bolton Street, Chorley, PR7 3DL",PR7 3DL,Chorley,53.6487891,-2.6297471,,,,,,1900246278,node,2026-03-06T09:39:44.351954
restaurants,Mario's Food House,fast_food,pizza,"46, Bolton Street, Chorley, PR7 3DL",PR7 3DL,Chorley,53.6488335,-2.6298062,,,,,,1900246909,node,2026-03-06T09:39:44.351956
restaurants,Subway,fast_food,sandwich,"Preston, PR5 4AW",PR5 4AW,Preston,53.7479802,-2.6769948,,https://restaurants.subway.com/united-kingdom/en/preston/unit-9-capitol-centre-london-waywalton-le-dale,,,,1906077789,node,2026-03-06T09:39:44.351959
restaurants,Ho King,fast_food,chinese,"56, Windsor Street, Colne, BB8 9LD",BB8 9LD,Colne,53.8604525,-2.1661305,,,,,,1929017836,node,2026-03-06T09:39:44.351963
restaurants,Zio,restaurant,italian,"Gisburn Road, Nelson, BB9 8LQ",BB9 8LQ,Nelson,53.8505505,-2.2163843,,,,,,1929033327,node,2026-03-06T09:39:44.351965
restaurants,Will's,restaurant,,"Gisburn Road, Nelson, BB9 8LQ",BB9 8LQ,Nelson,53.8508383,-2.2163032,,https://www.willswinebar.com/,,,,1929033336,node,2026-03-06T09:39:44.351966
restaurants,Man Lee,fast_food,chinese,"1, King Edward Terrace, Nelson, BB9 8NJ",BB9 8NJ,Nelson,53.846674,-2.2180688,,,,,,1929033342,node,2026-03-06T09:39:44.351968
restaurants,Wibbly Wobbly Burger Bar,restaurant,,,,,54.0069492,-2.7850106,,,Mo-Su 12:00-23:00,,limited,1980905010,node,2026-03-06T09:39:44.351970
restaurants,Millstone Chippy,fast_food,fish_and_chips,"1, Alexandra Road, Lancaster, LA1 2DS",LA1 2DS,Lancaster,54.06131,-2.7971828,,,"Mo-Fr 11:30-13:30,16:30-20:30; Sa 11:30-13:30; Su off",,,2006270531,node,2026-03-06T09:39:44.351972
restaurants,Romanos,restaurant,,,,,53.727092,-2.7829892,,,,,,2024600975,node,2026-03-06T09:39:44.351973
restaurants,Planet Pizza,fast_food,pizza,"45, Croft Street, Burnley, BB11 2EF",BB11 2EF,Burnley,53.7880113,-2.2408783,,,,,,2079202062,node,2026-03-06T09:39:44.351977
restaurants,McDonald's,fast_food,burger,"Churchill Way, Leyland, PR25 3LZ",PR25 3LZ,Leyland,53.6970951,-2.6906088,+44 1772 623643,https://www.mcdonalds.com/gb/en-gb/location/leyland/leyland/churchill-way/8260938.html,Mo-Su 00:00-24:00,,,2095968073,node,2026-03-06T09:39:44.351979
restaurants,Chans Take-away,restaurant,chinese,,,,53.6043977,-2.1468255,,,,,,2116717144,node,2026-03-06T09:39:44.351980
restaurants,David's Fish and Chips,fast_food,fish_and_chips,"12-18, Dale Street, OL16 4HS",OL16 4HS,,53.6107556,-2.112212,+44 1706 759991,,Mo-Sa,,yes,2117057218,node,2026-03-06T09:39:44.351982
restaurants,KFC,fast_food,chicken,"Blackpool Road, Preston, PR1 6QY",PR1 6QY,Preston,53.772685,-2.6780004,,https://www.kfc.co.uk/kfc-near-me/preston-deepdale-shopping-park,,,,2174396972,node,2026-03-06T09:39:44.351984
restaurants,Subway,fast_food,sandwich,"Blackpool Road, Preston, PR1 6QY",PR1 6QY,Preston,53.7725994,-2.6779843,,,,,,2174398412,node,2026-03-06T09:39:44.351986
restaurants,Nando's,restaurant,chicken;portuguese,"Blackpool Road, Preston, PR1 6QY",PR1 6QY,Preston,53.7724377,-2.6775069,,https://www.nandos.co.uk/restaurants/preston-deepdale,,,,2174403244,node,2026-03-06T09:39:44.351987
restaurants,Ruchi,restaurant,indian,"69, Whitworth Road",,,53.6243084,-2.1559459,+44 1706 521101,,,,no,2202055534,node,2026-03-06T09:39:44.351989
restaurants,PizzaExpress,restaurant,pizza,"14-17, Winckley Street, Preston, PR1 2AA",PR1 2AA,Preston,53.7572461,-2.702045,,https://www.pizzaexpress.com/preston-winckley-street,"Su-Th 11:30-22:00; Fr,Sa 11:30-23:00",,,2210519799,node,2026-03-06T09:39:44.351991
restaurants,Kingfisher Restaurant,restaurant,regional,,,,53.8870127,-2.7706378,,https://www.garstanghotelandgolf.com/,,,,2241783595,node,2026-03-06T09:39:44.351993
restaurants,KFC,fast_food,chicken,"92, Fishergate, Preston, PR1 2NJ",PR1 2NJ,Preston,53.7578055,-2.7037724,,https://www.kfc.co.uk/kfc-near-me/preston-fishergate,,,yes,2398784964,node,2026-03-06T09:39:44.351996
restaurants,Gusto,restaurant,italian,"50B, School Lane, Preston, PR5 6QE",PR5 6QE,Preston,53.7363421,-2.6599099,,,,,,2405787651,node,2026-03-06T09:39:44.351998
restaurants,Stubbins Tandoori,fast_food,indian,,,,53.6580574,-2.3157119,,,,,,2534576807,node,2026-03-06T09:39:44.352000
restaurants,The Cellar,restaurant,,,,,53.8019066,-2.3166131,,,,,,2595453405,node,2026-03-06T09:39:44.352002
restaurants,Goryeo,fast_food,korean;fried_chicken,"116, Prospect Street, Lancaster, LA1 3BH",LA1 3BH,Lancaster,54.0424264,-2.7930567,,https://goryeolancaster.co.uk/,Mo-Sa 12:00-23:00; Su 16:00-23:00,,,2612433041,node,2026-03-06T09:39:44.352003
restaurants,Aladdin's Cave,fast_food,pizza,"1, Central Buildings, Burnley, BB12 8NB",BB12 8NB,Burnley,53.8020893,-2.3150254,+44 1282 773311,,,,,2626572688,node,2026-03-06T09:39:44.352005
restaurants,The Plough Restaurant & Bar,restaurant,,"2, Broadfield, Accrington, BB5 3RY",BB5 3RY,Accrington,53.7390791,-2.3858145,,,,,,2636638869,node,2026-03-06T09:39:44.352007
restaurants,Nice and Spicy - Morecambe,fast_food,indian,"4, Whitegate, Morecambe, LA3 3BS",LA3 3BS,Morecambe,54.0602329,-2.8461513,,https://take-a-way.co.uk/menu/1654/nice-and-spicy-morecambe/,,,,2927521273,node,2026-03-06T09:39:44.352008
restaurants,The China Chef,fast_food,chinese,"16, Pedder Street, Morecambe, LA4 5DZ",LA4 5DZ,Morecambe,54.0728517,-2.8653129,,https://take-a-way.co.uk/menu/3191/china-chef-morecambe/,,,,2927532048,node,2026-03-06T09:39:44.352010
restaurants,Garden of Eden,fast_food,chinese,"26, Regent Road, Morecambe, LA3 1QN",LA3 1QN,Morecambe,54.0658134,-2.8797595,,,,,,2927559956,node,2026-03-06T09:39:44.352012
restaurants,Bodrum,fast_food,pizza;burger;kebab,"28, Queen Street, Morecambe, LA4 5EG",LA4 5EG,Morecambe,54.0729739,-2.8637747,,https://take-a-way.co.uk/menu/1209/bodrum/,,,,2927567897,node,2026-03-06T09:39:44.352015
restaurants,Subway,fast_food,sandwich,Freckleton,,Freckleton,53.7509931,-2.8846943,,https://restaurants.subway.com/united-kingdom/en/preston/unit-2-47-lytham-rd-warton,,,,2953071680,node,2026-03-06T09:39:44.352017
restaurants,Fresco,restaurant,italian,,,,53.6613537,-2.7744656,,,,,,2990472630,node,2026-03-06T09:39:44.352019
restaurants,Subway,fast_food,sandwich,"Spring Lane, Preston, PR5 0UX",PR5 0UX,Preston,53.7660586,-2.6025844,,https://restaurants.subway.com/united-kingdom/en/preston/spring-lane-salmesbury,,,,3095952763,node,2026-03-06T09:39:44.352024
restaurants,Chaiiwala,fast_food,indian;coffee_shop,"Preston New Road, Blackburn, BB2 7NP",BB2 7NP,Blackburn,53.7698736,-2.5606653,,,,,,3095953829,node,2026-03-06T09:39:44.352026
restaurants,Eddie Gills,fast_food,fish_and_chips,"10, Moor Lane, Burnley, BB12 8LZ",BB12 8LZ,Burnley,53.8023819,-2.315409,+44 1282 680200,,,,,3247812032,node,2026-03-06T09:39:44.352028
restaurants,Bella Maria,restaurant,italian;tapas,"Preston, PR5 4AW",PR5 4AW,Preston,53.74823,-2.6808405,,https://www.facebook.com/bellamariacapitol/,,,,3384420767,node,2026-03-06T09:39:44.352029
restaurants,Cinnamon Indian Cuisine,restaurant,indian,"Preston Road, Wigan, WN6 0QD",WN6 0QD,Wigan,53.6027615,-2.6736046,,,,,,3452627136,node,2026-03-06T09:39:44.352031
restaurants,Coppull Tandoori,fast_food,indian,"194, Spendmore Lane, Chorley, PR7 5BZ",PR7 5BZ,Chorley,53.6218285,-2.6623733,,,,,,3464841517,node,2026-03-06T09:39:44.352033
restaurants,Pizzeria Del Mamolo,fast_food,pizza,Spendmore Lane,,,53.6217896,-2.6625959,,,,,,3464842421,node,2026-03-06T09:39:44.352035
restaurants,Levanter,restaurant,tapas,"10, Square Street, Bury, BL0 9BE",BL0 9BE,Bury,53.6482856,-2.3179495,,,"Mo,Tu closed; We 17:00-23:00 open ""Kitchen till 10PM""; Th 12:00-23:00 open ""Kitchen till 10:00pm""; Fr 12:00-23:00 open ""Kitchen till 10:00pm""; Sa 12:00-23:00 open ""Kitchen till 10:00pm""; Su 12:00-20:00 open ""Kitchen till 7:30pm""",,,3521864471,node,2026-03-06T09:39:44.352038
restaurants,King Cod,fast_food,fish,"632, Blackpool Road, Preston, PR2 1SE",PR2 1SE,Preston,53.7693341,-2.7464697,,,,,,3750417014,node,2026-03-06T09:39:44.352040
restaurants,Subway,fast_food,sandwich,"78, Liverpool Road, Preston, PR1 0DQ",PR1 0DQ,Preston,53.7490506,-2.7352224,,https://restaurants.subway.com/united-kingdom/en/preston/78-liverpool-road,,,,3785995190,node,2026-03-06T09:39:44.352042
restaurants,KC's African & Caribbean Cuisine,restaurant,african;caribbean,"Lancaster University, Lancaster, LA1 4YW",LA1 4YW,Lancaster,54.0098577,-2.7848071,,,Mo-Th 10:30-23:00; Fr-Sa 10:30-01:00,,,3786009263,node,2026-03-06T09:39:44.352044
restaurants,Subway,fast_food,sandwich,"Bowland College, Lancaster, LA1 4YW",LA1 4YW,Lancaster,54.0107195,-2.7849692,,https://restaurants.subway.com/united-kingdom/en/lancaster/unit-66-bowland-college,"Mo-Fr 07:30-22:00; Sa,Su 09:30-22:00",,yes,3786009903,node,2026-03-06T09:39:44.352045
restaurants,Baltic Homeland,restaurant,continental,"133, St James's Street, Burnley, BB11 1PP",BB11 1PP,Burnley,53.7898127,-2.2466856,,,12:00+,,,3883427602,node,2026-03-06T09:39:44.352047
restaurants,Golden House,fast_food,chinese,"18, Noel Road, Lancaster, LA1 2LZ",LA1 2LZ,Lancaster,54.061,-2.8062529,+44 1524 69966,,,,no,3887637948,node,2026-03-06T09:39:44.352049
restaurants,Subway,fast_food,sandwich,"Owen Road, Lancaster, LA1 2LL",LA1 2LL,Lancaster,54.0581908,-2.8012564,,https://restaurants.subway.com/united-kingdom/en/lancaster/owen-road-lancaster,"Mo-Fr 07:00-20:00; Sa,Su 08:00-20:00",,,3887676349,node,2026-03-06T09:39:44.352051
restaurants,Dri Dri's Food,fast_food,,"3, Owen Road, Lancaster, LA1 2AW",LA1 2AW,Lancaster,54.0551755,-2.7989094,,,Mo-Th 08:00-22:00; Fr 08:00-22:00; Sa 09:00-22:00; Su 12:00-22:00,,,3887726090,node,2026-03-06T09:39:44.352052
restaurants,Happy Dragon,fast_food,chinese,"4, Langdale Place, Lancaster, LA1 3NS",LA1 3NS,Lancaster,54.057289,-2.790103,,,,,,3893486048,node,2026-03-06T09:39:44.352054
restaurants,Paradise,fast_food,chinese,"45, Ullswater Road, Lancaster, LA1 3PS",LA1 3PS,Lancaster,54.0499788,-2.7904558,+44 1524 66228,https://hkpcl.com/paradise,"Mo, We-Th, Su 17:00-22:30; Fr-Sa 17:00-23:00",,,3894922061,node,2026-03-06T09:39:44.352058
restaurants,Fired Wok,fast_food,chinese,"98, Prospect Street, Lancaster, LA1 3BH",LA1 3BH,Lancaster,54.0428365,-2.7930858,+44 1524 36000,https://www.firedwok.co.uk/,Tu-Su 17:00-22:00; Mo off,,,3895078737,node,2026-03-06T09:39:44.352059
restaurants,Hodgson's,fast_food,fish_and_chips,"96, Prospect Street, Lancaster, LA1 3BH",LA1 3BH,Lancaster,54.0428884,-2.7930879,,,Mo-Sa 11:30-20:00; Su off,,,3895078738,node,2026-03-06T09:39:44.352061
restaurants,Mr Wang,fast_food,chinese,"59, Scotforth Road, Lancaster, LA1 4SA",LA1 4SA,Lancaster,54.0322257,-2.7940767,+44 1524 846484,,Tu-Su 17:00-23:00,,limited,3895213380,node,2026-03-06T09:39:44.352063
restaurants,Evergreens,fast_food,chinese,"15-16, Lentworth Drive, Lancaster, LA1 4RQ",LA1 4RQ,Lancaster,54.0279648,-2.7913054,+44 1524 64163,,Tu-Th 17:00-21:30; Fr-Sa 17:00-22:00; Su 17:00-21:30,,limited,3895265346,node,2026-03-06T09:39:44.352064
restaurants,Windmill Takeaway,fast_food,fish_and_chips;chinese,"1, West Road, Lancaster, LA1 5PG",LA1 5PG,Lancaster,54.0509476,-2.8128805,+44 1524 942925,,"Tu-Sa 11:30-14:00,16:30-22:30; Su 16:30-22:30",,,3902775777,node,2026-03-06T09:39:44.352066
restaurants,Pizza Margherita,restaurant,,"2, Moor Lane, Lancaster, LA1 1QD",LA1 1QD,Lancaster,54.049085,-2.7977004,,,"Fr,Sa 12:00-21:30; Su 12:00-21:00; Mo off; Tu,We 16:30-21:00; Th 16:30-21:30",,,3903073412,node,2026-03-06T09:39:44.352068
restaurants,Quarterhouse,restaurant,modern_british;brunch;sharers,"13, Moor Lane, Lancaster, LA1 1QD",LA1 1QD,Lancaster,54.0492718,-2.7974301,+44 1524 382958,https://www.thequarterhouse.co.uk/,"Tu-Fr,Su 10:00-15:30, Sa 09:00-15:30; Su off, Tu-Th 17:00-23:00, Fr,Sa 17:00-24:00",,,3903073422,node,2026-03-06T09:39:44.352070
restaurants,Moorish,fast_food,sandwich,"5, Moor Lane, Lancaster, LA1 1QD",LA1 1QD,Lancaster,54.0493703,-2.7978013,,https://www.moor-ish.com/,"Mo,We-Fr 10:45-14:15; Tu,Sa,Su off",,,3903073425,node,2026-03-06T09:39:44.352071
restaurants,Mama Mia!,fast_food,,"135, St Leonard's Gate, Lancaster, LA1 1NL",LA1 1NL,Lancaster,54.0496449,-2.7979776,+44 1524 542689,,,,,3903090737,node,2026-03-06T09:39:44.352073
restaurants,Half Moon Bay Chinese Takeaway,fast_food,chinese,"2, Green Street, Lancaster, LA1 1DZ",LA1 1DZ,Lancaster,54.0530133,-2.7933442,,,,,,3903151411,node,2026-03-06T09:39:44.352077
restaurants,Marco's,restaurant,italian,"27-29, North Road, Lancaster, LA1 1NS",LA1 1NS,Lancaster,54.0506279,-2.797704,,,,,,3903195152,node,2026-03-06T09:39:44.352079
restaurants,Araya Thai Restaurant,restaurant,thai,"6-6a, Chapel Street, Lancaster, LA1 1NZ",LA1 1NZ,Lancaster,54.0507178,-2.7996019,,,,,,3903235194,node,2026-03-06T09:39:44.352082
restaurants,Delhicious,fast_food,indian,"8, Damside Street, Lancaster, LA1 1PB",LA1 1PB,Lancaster,54.0500665,-2.7997508,+44 1524 844844,https://delhicious.com/,Mo-Su 17:00-23:30; Tu off,,,3904387282,node,2026-03-06T09:39:44.352084
restaurants,Mong Kok,restaurant,chinese,"16, Church Street, Lancaster, LA1 1NP",LA1 1NP,Lancaster,54.0495677,-2.7992843,,,,,,3904518550,node,2026-03-06T09:39:44.352086
restaurants,Lancaster Food Court,fast_food,pizza;kebab;burger;fried_chicken,"71, North Road, Lancaster, LA1 1LU",LA1 1LU,Lancaster,54.0497123,-2.7996308,+44 1524 807375,https://lancasterfoodcourt.com/,,,,3904530539,node,2026-03-06T09:39:44.352089
restaurants,Bombay Balti,restaurant,indian,"16, China Street, Lancaster, LA1 1EX",LA1 1EX,Lancaster,54.0494999,-2.8033601,,,,,,3904779131,node,2026-03-06T09:39:44.352091
restaurants,Subway,fast_food,sandwich,"99-101, Penny Street, Lancaster, LA1 1XN",LA1 1XN,Lancaster,54.0455768,-2.7997075,,https://restaurants.subway.com/united-kingdom/en/lancaster/99-101-penny-st,Mo-Fr 07:00-23:00; Sa 07:30-23:00; Su 08:30-23:00,,yes,3930524193,node,2026-03-06T09:39:44.352093
restaurants,Aquila Pizza,fast_food,pizza,"80, Penny Street, Lancaster, LA1 1XN",LA1 1XN,Lancaster,54.0464976,-2.7999761,+44 1524 297289,https://www.aquilapizzeria.co.uk/,Mo-Sa 17:00-21:00,,,3930558775,node,2026-03-06T09:39:44.352095
restaurants,Ado's,fast_food,peri_peri;pizza;burger;kebab;wrap;chicken,"78, Penny Street, Lancaster, LA1 1XN",LA1 1XN,Lancaster,54.0465629,-2.7999792,,https://adoslancaster.co.uk/,,,,3930558776,node,2026-03-06T09:39:44.352097
restaurants,The Grill Box,fast_food,,"66, Penny Street, Lancaster, LA1 1XF",LA1 1XF,Lancaster,54.0468567,-2.7999644,,,Mo-Su 16:00-23:00,,,3930574634,node,2026-03-06T09:39:44.352100
restaurants,Spread,fast_food,sandwich,"21, Brock Street, Lancaster, LA1 1UR",LA1 1UR,Lancaster,54.0475428,-2.7986949,,,Mo-Sa 10:00-15:00,,,3930579736,node,2026-03-06T09:39:44.352102
restaurants,Seven Sins,restaurant,grill;burger;international,"5-7, Mary Street, Lancaster, LA1 1UW",LA1 1UW,Lancaster,54.0480673,-2.798937,+44 1524 931725,,,,,3930587254,node,2026-03-06T09:39:44.352104
restaurants,Tora Ramen,fast_food,ramen,"19, Dalton Square, Lancaster, LA1 1PL",LA1 1PL,Lancaster,54.0481269,-2.7982019,+44 1524 807113,,Mo off; Tu-Sa 12:00-23:00; Su 12:00-22:00,,limited,3930606493,node,2026-03-06T09:39:44.352106
restaurants,The Bow Window,restaurant,,"2, Princes Crescent, Morecambe, LA4 6BX",LA4 6BX,Morecambe,54.0789854,-2.8398629,,,,,,3946130986,node,2026-03-06T09:39:44.352108
restaurants,Pickles,fast_food,sandwich,"351, Lancaster Road, Morecambe, LA4 6RL",LA4 6RL,Morecambe,54.0662535,-2.8347468,,,"Tu-Sa 07:30-13:30; Su,Mo off",,,3953651102,node,2026-03-06T09:39:44.352110
restaurants,Sweet n Sour,fast_food,chinese,"357, Lancaster Road, Morecambe, LA4 6RL",LA4 6RL,Morecambe,54.0661059,-2.8338787,,,,,,3953651126,node,2026-03-06T09:39:44.352111
restaurants,Fisherie,fast_food,fish_and_chips,"363, Lancaster Road, Morecambe, LA4 6LZ",LA4 6LZ,Morecambe,54.0660786,-2.8332923,,,,,,3953651135,node,2026-03-06T09:39:44.352113
restaurants,The Deli Delights,fast_food,fish_and_chips;sandwich;breakfast;snack,"7, Windermere Avenue, Morecambe, LA4 5TT",LA4 5TT,Morecambe,54.0648974,-2.8432375,,,,,,3953718093,node,2026-03-06T09:39:44.352115
restaurants,Atkinsons's Fish & Chips,fast_food,fish_and_chips,"255, Lancaster Road, Morecambe, LA4 5TJ",LA4 5TJ,Morecambe,54.0676448,-2.8452657,,,,,,3953744008,node,2026-03-06T09:39:44.352116
restaurants,Four Seasons,fast_food,chinese,"154, Lancaster Road, Morecambe, LA4 5QW",LA4 5QW,Morecambe,54.069554,-2.85197,+44 1524 414 333,,,,,3953756927,node,2026-03-06T09:39:44.352120
restaurants,Sweet Zen,fast_food,chinese,"22, Croft Street, Morecambe, LA4 5SS",LA4 5SS,Morecambe,54.0689658,-2.8539435,,,,,,3958060480,node,2026-03-06T09:39:44.352121
restaurants,Poulton Square Fish & Chips,fast_food,fish_and_chips,"1, Poulton Square, Morecambe, LA4 5PZ",LA4 5PZ,Morecambe,54.0735177,-2.8584826,,,,,,3958134792,node,2026-03-06T09:39:44.352123
restaurants,Victoria,fast_food,sandwich,"10, Thornton Road, Morecambe, LA4 5PB",LA4 5PB,Morecambe,54.0765848,-2.8537108,,,,,,3958205751,node,2026-03-06T09:39:44.352125
restaurants,Queen Street Kitchen,fast_food,,"47-47a, Queen Street, Morecambe, LA4 5EL",LA4 5EL,Morecambe,54.072595,-2.8635611,,,,,,3958415622,node,2026-03-06T09:39:44.352126
restaurants,Don Luca Pizza,restaurant,pizza,"1-3, Queen Street, Morecambe, LA4 5EQ",LA4 5EQ,Morecambe,54.0732159,-2.8651067,,,,,,3959223758,node,2026-03-06T09:39:44.352128
restaurants,Pizzeria Italia,fast_food,italian,"15, Queen Street, Morecambe, LA4 5EQ",LA4 5EQ,Morecambe,54.073084,-2.8645619,+44 1524 419400,,,,,3959631518,node,2026-03-06T09:39:44.352130
restaurants,The Sandwich Bar,fast_food,sandwich,"29, Queen Street, Morecambe, LA4 5EQ",LA4 5EQ,Morecambe,54.0729153,-2.8641114,,,,,,3959640558,node,2026-03-06T09:39:44.352131
restaurants,Marmaris,fast_food,,"Queen Street, Morecambe",,Morecambe,54.0729312,-2.8636531,,,,,,3959644806,node,2026-03-06T09:39:44.352133
restaurants,Rayman's,fast_food,pizza,"26, Queen Street, Morecambe, LA4 5EG",LA4 5EG,Morecambe,54.0729952,-2.8638355,+44 1524 427878,,,,,3959652857,node,2026-03-06T09:39:44.352137
restaurants,The Lodge,restaurant,,"12, Queen Street, Morecambe, LA4 5EG",LA4 5EG,Morecambe,54.0732141,-2.8644372,,,,,,3959652862,node,2026-03-06T09:39:44.352140
restaurants,Cappadocia,fast_food,,"8, Queen Street, Morecambe, LA4 5EG",LA4 5EG,Morecambe,54.0733077,-2.8647472,,,,,,3959656050,node,2026-03-06T09:39:44.352142
restaurants,The Brasserie,restaurant,greek,"2, Queen Street, Morecambe, LA4 5EG",LA4 5EG,Morecambe,54.0734111,-2.865157,,,Th-Sa 17:00-21:00; Su-We off,,,3959656457,node,2026-03-06T09:39:44.352144
restaurants,Subway,fast_food,sandwich,"4, Market Street, Morecambe, LA4 5DN",LA4 5DN,Morecambe,54.0721363,-2.8665226,,https://restaurants.subway.com/united-kingdom/en/morecambe/4-market-street-the-arndale-centre,,,,3959675677,node,2026-03-06T09:39:44.352145
restaurants,The Food Shack,fast_food,breakfast;burger,"12, Market Street, Morecambe, LA4 5DN",LA4 5DN,Morecambe,54.0717132,-2.8665781,,,,,,3959675680,node,2026-03-06T09:39:44.352147
restaurants,Greggs,fast_food,sandwich;bakery,"Morecambe, LA4 5DH",LA4 5DH,Morecambe,54.0716478,-2.8656394,,https://www.greggs.co.uk/shop-finder?shop-code=1422,,,,3959705518,node,2026-03-06T09:39:44.352149
restaurants,Fusion,restaurant,,"3-5, Pedder Street, Morecambe, LA4 5DY",LA4 5DY,Morecambe,54.0728364,-2.8660161,,,Mo-Su 16:30-23:00,,,3959713942,node,2026-03-06T09:39:44.352150
restaurants,King Express,fast_food,pizza;kebab,"266, Marine Road Central, Morecambe, LA4 5BX",LA4 5BX,Morecambe,54.0731424,-2.865924,,,,,,3959736963,node,2026-03-06T09:39:44.352152
restaurants,Black Thai,restaurant,thai,"271, Marine Road Central, Morecambe, LA4 5BX",LA4 5BX,Morecambe,54.0732434,-2.865608,,,,,,3959736966,node,2026-03-06T09:39:44.352154
restaurants,Crown Bar & Bistro,restaurant,,"239, Marine Road Central, Morecambe, LA4 4BJ",LA4 4BJ,Morecambe,54.0725531,-2.8684102,,,,,,3959769337,node,2026-03-06T09:39:44.352155
restaurants,Saffron,restaurant,indian,"6, Skipton Street, Morecambe, LA4 4AR",LA4 4AR,Morecambe,54.0721868,-2.8683822,,,,,,3966200392,node,2026-03-06T09:39:44.352159
restaurants,A J's Double Burgers,fast_food,burger,"Marine Road Central, Morecambe",,Morecambe,54.0724669,-2.8692973,,,,,,3967775540,node,2026-03-06T09:39:44.352161
restaurants,Domino's,fast_food,pizza,"1, Hilmore Way, Morecambe, LA4 4DD",LA4 4DD,Morecambe,54.0703828,-2.8702282,,https://www.dominos.co.uk/pizza-near-me/morecambe/part-unit-2-hilmore-way,,,,3967802027,node,2026-03-06T09:39:44.352193
restaurants,Selekt Chicken,fast_food,chicken,"20, Glentworth Road West, Morecambe, LA4 4SZ",LA4 4SZ,Morecambe,54.0616874,-2.8528091,,,,,,3981983525,node,2026-03-06T09:39:44.352199
restaurants,Neighbours Food Bar,fast_food,,"90, Regent Road, Morecambe, LA3 1AE",LA3 1AE,Morecambe,54.0641971,-2.8767357,,,"Su-Th 17:00-23:00; Fr,Sa 17:00-23:30; Tu off",,,3982125992,node,2026-03-06T09:39:44.352201
restaurants,Chopsticks,fast_food,chinese,"80, Westminster Road, Morecambe, LA4 4JE",LA4 4JE,Morecambe,54.0649273,-2.8778786,,,Tu-Su 17:00-23:00,,,3982137119,node,2026-03-06T09:39:44.352203
restaurants,Pizza Time,fast_food,pizza,"12, Albert Road, Morecambe, LA4 4HB",LA4 4HB,Morecambe,54.0667103,-2.8791067,+44 1524 831001,,,,,3982199323,node,2026-03-06T09:39:44.352205
restaurants,Atkinsons Fish & Chips,restaurant,fish_and_chips,"16-18, Albert Road, Morecambe, LA4 4HB",LA4 4HB,Morecambe,54.0666233,-2.8789353,,,,,,3982199324,node,2026-03-06T09:39:44.352207
restaurants,Best Buttys,fast_food,sandwich,"23, Claremont Road, Morecambe, LA4 4HL",LA4 4HL,Morecambe,54.0660885,-2.8791028,,,,,,3983899218,node,2026-03-06T09:39:44.352208
restaurants,Yang Sing,fast_food,chinese,"61, Clarendon Road East, Morecambe, LA4 4HT",LA4 4HT,Morecambe,54.0654855,-2.8787404,+44 1524 416148,,"Su-Th 17:00-23:00; Fr,Sa 17:00-23:30; We off",,,3983899239,node,2026-03-06T09:39:44.352210
restaurants,Spice Room,fast_food,,"38-40, Yorkshire Street West, Morecambe, LA3 1QE",LA3 1QE,Morecambe,54.0653499,-2.8808364,,,"Fr,Sa 16:00-24:00, We,Th,Su,Mo 16:00-23:00",,yes,3984027795,node,2026-03-06T09:39:44.352216
restaurants,Yorkshire Street Fish & Chips,fast_food,fish_and_chips,"Yorkshire Street West, Morecambe",,Morecambe,54.0655832,-2.8807265,,,,,,3984051376,node,2026-03-06T09:39:44.352218
restaurants,Pizza Cottage,fast_food,pizza,"7-9, Regent Road, Morecambe, LA3 1QG",LA3 1QG,Morecambe,54.0659358,-2.8805265,+44 1524 4 111 00,,,,,3984089627,node,2026-03-06T09:39:44.352220
restaurants,Cheeky Cow,fast_food,burger,"34, Heysham Road, Morecambe, LA3 1DQ",LA3 1DQ,Morecambe,54.0639478,-2.8867701,,,,,,3986149674,node,2026-03-06T09:39:44.352221
restaurants,The Green Door ,restaurant,,,,,53.6390724,-2.1170382,,,,,,4023430693,node,2026-03-06T09:39:44.352224
restaurants,Tattersals sandwhich shop,fast_food,,,,,53.6419235,-2.1070443,,,,,,4023460217,node,2026-03-06T09:39:44.352225
restaurants,Wok Inn,fast_food,chinese,"Bowland Avenue South, Lancaster, LA1 4YT",LA1 4YT,Lancaster,54.0100119,-2.7850889,,https://wokiinlancaster.co.uk/,Mo-Su 11:00-22:00,,yes,4071929220,node,2026-03-06T09:39:44.352227
restaurants,Leyland Cross Fish & Chips,fast_food,fish_and_chips,"Church Road, Leyland",,Leyland,53.6891589,-2.6973707,+44 1772 623714,,,,,4085225856,node,2026-03-06T09:39:44.352229
restaurants,Simply Scrumptious,fast_food,,"Leyland Lane, Leyland",,Leyland,53.6883784,-2.7165606,,,,,,4086431707,node,2026-03-06T09:39:44.352231
restaurants,Seven Stars,fast_food,indian,"360, Leyland Lane, Leyland, PR25 1TB",PR25 1TB,Leyland,53.6885955,-2.716576,,,,,,4086431711,node,2026-03-06T09:39:44.352242
restaurants,Leyland Fish & Chips,fast_food,fish_and_chips,"358, Leyland Lane, Leyland, PR25 1TB",PR25 1TB,Leyland,53.688663,-2.7166007,,,,,,4086431712,node,2026-03-06T09:39:44.352247
restaurants,Tatjana's Sandwich Shop,fast_food,sandwich,"Leyland Lane, Leyland",,Leyland,53.6890647,-2.7163816,,,,,,4086475505,node,2026-03-06T09:39:44.352249
restaurants,Crispy Fried,fast_food,chicken,"310, Leyland Lane, Leyland, PR25 1UL",PR25 1UL,Leyland,53.6911282,-2.7172417,+44 1772 45 45 46,,,,,4086508593,node,2026-03-06T09:39:44.352252
restaurants,Franco'S,fast_food,pasta;pizza,"85, Leyland Lane, Leyland, PR25 1XB",PR25 1XB,Leyland,53.6987134,-2.7129368,,,,,,4086543910,node,2026-03-06T09:39:44.352254
restaurants,Indiana,fast_food,,"83, Leyland Lane, Leyland, PR25 1XB",PR25 1XB,Leyland,53.6987876,-2.7128632,,,,,,4086543911,node,2026-03-06T09:39:44.352257
restaurants,Poseidon Fish & Chips,fast_food,fish_and_chips,"70, Leyland Lane, Leyland, PR25 1XB",PR25 1XB,Leyland,53.6988912,-2.7134309,,,,,,4086557835,node,2026-03-06T09:39:44.352259
restaurants,Wonderland,restaurant,chinese,"Lancastergate, Leyland, PR25 2EX",PR25 2EX,Leyland,53.6905006,-2.6983891,+44 1772 622299,,,,,4087804395,node,2026-03-06T09:39:44.352261
restaurants,Giulio's,fast_food,italian,"111, Towngate, Leyland, PR25 2LQ",PR25 2LQ,Leyland,53.6925089,-2.6968186,+44 1772 622420,,,,,4087836107,node,2026-03-06T09:39:44.352263
restaurants,Traditional Fish & Chips,fast_food,fish_and_chips,"Bannister Drive, Leyland",,Leyland,53.6973953,-2.7043114,,,,,,4088097171,node,2026-03-06T09:39:44.352264
restaurants,Happy House Fish & Chips,fast_food,fish_and_chips;chinese,"63, School Lane, Leyland, PR25 2TU",PR25 2TU,Leyland,53.6978964,-2.6995725,+44 1772 422127,,,,,4088176031,node,2026-03-06T09:39:44.352266
restaurants,6BURGERZ,fast_food,burger,"104-106, Towngate, Leyland, PR25 2LR",PR25 2LR,Leyland,53.69175,-2.6970874,+44 1772909054,https://www.6burgerz.co.uk/,,,,4088402574,node,2026-03-06T09:39:44.352270
restaurants,Mumbai Masala,fast_food,indian,"104-106, Towngate, Leyland, PR25 2LR",PR25 2LR,Leyland,53.6917166,-2.6971054,,,,,,4088402575,node,2026-03-06T09:39:44.352272
restaurants,You & Me,fast_food,fish_and_chips;chinese,"63-65, Turpin Green Lane, Leyland, PR25 3HA",PR25 3HA,Leyland,53.6947557,-2.6879723,+44 1772 422104,,,,,4088461059,node,2026-03-06T09:39:44.352274
restaurants,Purple Pig Sandwich Bar,fast_food,sandwich,"41, Turpin Green Lane, Leyland, PR25 3HA",PR25 3HA,Leyland,53.6950294,-2.6890053,,,,,,4088537507,node,2026-03-06T09:39:44.352276
restaurants,Beijing,restaurant,chinese,"11, Chapel Brow, Leyland, PR25 3NH",PR25 3NH,Leyland,53.6977181,-2.6893596,+44 1772 459 122,,,,,4088557858,node,2026-03-06T09:39:44.352278
restaurants,Subway,fast_food,sandwich,"24, Hough Lane, Leyland, PR25 2SD",PR25 2SD,Leyland,53.6948191,-2.6946523,,https://restaurants.subway.com/united-kingdom/en/preston/24-hough-lnleyland,,,,4089852649,node,2026-03-06T09:39:44.352279
restaurants,Leyland Chop Suey House,fast_food,chinese,"68, Hough Lane, Leyland, PR25 2SA",PR25 2SA,Leyland,53.6956009,-2.6923252,+44 1772 422 668,,,,,4089854765,node,2026-03-06T09:39:44.352281
restaurants,The Plaice,fast_food,,"57, Hough Lane, Leyland, PR25 2SA",PR25 2SA,Leyland,53.6957064,-2.6930754,,,,,,4096965401,node,2026-03-06T09:39:44.352283
restaurants,The Chicken Barbeque,fast_food,,"Hough Lane, Leyland",,Leyland,53.6951883,-2.6944803,,,,,,4096965507,node,2026-03-06T09:39:44.352285
restaurants,Antonellos,restaurant,italian,"69, Hough Lane, Leyland, PR25 2SA",PR25 2SA,Leyland,53.6957451,-2.6926756,,,,,,4096992526,node,2026-03-06T09:39:44.352287
restaurants,Isola bella,restaurant,italian,"Hough Lane, Leyland",,Leyland,53.6959466,-2.692064,+44 1772 45 93 93,,,,,4096998335,node,2026-03-06T09:39:44.352290
restaurants,Kebab House,fast_food,kebab,"16, Chapel Brow, Leyland, PR25 3NE",PR25 3NE,Leyland,53.6974025,-2.6898973,+44 1772 432 757,,,,,4097050925,node,2026-03-06T09:39:44.352292
restaurants,Chester's Chicken & Pizza,fast_food,,"Golden Hill Lane, Leyland",,Leyland,53.6979777,-2.6900187,,,,,,4097050933,node,2026-03-06T09:39:44.352294
restaurants,Golden Hill Chinese Takeaway,fast_food,chinese,"13, Golden Hill Lane, Leyland, PR25 3NP",PR25 3NP,Leyland,53.6979861,-2.6900878,+44 1772 4356 88,,,,,4097050934,node,2026-03-06T09:39:44.352296
restaurants,Fullfilled,fast_food,sandwich,"21, Golden Hill Lane, Leyland, PR25 3NP",PR25 3NP,Leyland,53.6980198,-2.690474,+44 1772 62 111 4,,,,,4097050939,node,2026-03-06T09:39:44.352297
restaurants,Gilly's Fish & Chips,fast_food,,"Golden Hill Lane, Leyland",,Leyland,53.6980246,-2.690537,,,,,,4097050940,node,2026-03-06T09:39:44.352299
restaurants,Sakura Valley,restaurant,japanese;sushi,"29, Golden Hill Lane, Leyland, PR25 3NP",PR25 3NP,Leyland,53.6980372,-2.690723,,,,,,4097050943,node,2026-03-06T09:39:44.352301
restaurants,Dil Raj,fast_food,indian,"5, Preston Road, Leyland, PR25 4NT",PR25 4NT,Leyland,53.6999939,-2.6863295,,,,,,4097418536,node,2026-03-06T09:39:44.352303
restaurants,China Star,fast_food,chinese,"11, Preston Road, Leyland, PR25 4NT",PR25 4NT,Leyland,53.7001322,-2.6861632,,,,,,4097418538,node,2026-03-06T09:39:44.352304
restaurants,Ranjha's,fast_food,,"11A, Preston Road, Leyland, PR25 4NT",PR25 4NT,Leyland,53.7001811,-2.6860449,,,,,,4097418539,node,2026-03-06T09:39:44.352308
restaurants,Hong Kong House,fast_food,,"21, Preston Road, Leyland, PR25 4NT",PR25 4NT,Leyland,53.7004213,-2.6858,+44 1772 433 693,,,,,4097418547,node,2026-03-06T09:39:44.352311
restaurants,Pizza Costa,fast_food,,"Clifton Parade, Leyland, PR25 4YU",PR25 4YU,Leyland,53.7037036,-2.6803171,+44 1772 62 19 83,,,,,4097476465,node,2026-03-06T09:39:44.352313
restaurants,Sylhet Fusion,fast_food,,"Clifton Parade, Leyland, PR25 4YU",PR25 4YU,Leyland,53.7037337,-2.6800691,+44 1772 6222 66,,,,,4097476467,node,2026-03-06T09:39:44.352315
restaurants,Subway,fast_food,sandwich,"393, Station Road, Preston, PR5 6EJ",PR5 6EJ,Preston,53.7221296,-2.6623393,+44 1772 697690,https://restaurants.subway.com/united-kingdom/en/preston/395-station-rdbamber-bridge,Mo-We 08:00-20:00; Th-Sa 08:00-21:00; Su 09:00-20:00,,,4121398297,node,2026-03-06T09:39:44.352316
restaurants,TJ's,fast_food,sandwich,"Station Road, Preston, PR5 6EE",PR5 6EE,Preston,53.7234456,-2.6612936,,,,,,4122168854,node,2026-03-06T09:39:44.352318
restaurants,Subway,fast_food,sandwich,,,,53.7265967,-2.6932929,,,,,,4139279453,node,2026-03-06T09:39:44.352320
restaurants,KFC,fast_food,chicken,"Haslingden Road, Blackburn, BB2 3HQ",BB2 3HQ,Blackburn,53.7359551,-2.4684477,,https://www.kfc.co.uk/kfc-near-me/blackburn-haslingden-road,,,,4140775169,node,2026-03-06T09:39:44.352322
restaurants,Old Bank Lane Fish & Chips,fast_food,fish_and_chips,"Old Bank Lane, Blackburn",,Blackburn,53.7355815,-2.4684831,,,,,,4140802579,node,2026-03-06T09:39:44.352324
restaurants,EastZEast Blackburn,restaurant,,"Northgate, Blackburn, BB2 1AA",BB2 1AA,Blackburn,53.7491585,-2.4858497,+44 1254 678975,https://www.eastzeast.info/,,,,4167800089,node,2026-03-06T09:39:44.352326
restaurants,BürgShake,fast_food,burger;milkshake,"133, St Leonard's Gate, Lancaster, LA1 1NL",LA1 1NL,Lancaster,54.0496698,-2.7979547,,,,,,4227308203,node,2026-03-06T09:39:44.352327
restaurants,Olive Garden,restaurant,italian,"Preston Road, Wigan, WN6 0QD",WN6 0QD,Wigan,53.6032055,-2.6734832,,,,,,4238980524,node,2026-03-06T09:39:44.352331
restaurants,White Crow at Worthington,restaurant,,"Wigan Lane, Wigan, WN1 2XL",WN1 2XL,Wigan,53.6062491,-2.6324329,,,,,,4239215797,node,2026-03-06T09:39:44.352332
restaurants,KFC,fast_food,chicken,"456-458, Leyland Road, Preston, PR5 5RY",PR5 5RY,Preston,53.7267549,-2.6933858,,https://www.kfc.co.uk/kfc-near-me/preston-leyland-road,,,,4257607992,node,2026-03-06T09:39:44.352334
restaurants,Megna,fast_food,,"100, Queen Street, Blackburn, BB6 7AL",BB6 7AL,Blackburn,53.7859312,-2.402688,,,,,,4275351913,node,2026-03-06T09:39:44.352336
restaurants,Yum Yum,fast_food,pizza;kebab;burger,"8, Lancaster Road, Preston, PR1 1DA",PR1 1DA,Preston,53.7587773,-2.6973768,+44 1772 251333,https://yumyumpreston.co.uk/,Su-Th 11:00-03:00; Fr-Sa 11:00-04:30,,,4278412390,node,2026-03-06T09:39:44.352338
restaurants,McDonald's,fast_food,burger,"ExtraMSA Blackburn with Darwen Services, Darwen, BB3 0AT",BB3 0AT,Darwen,53.7127275,-2.4779053,+44 1254 773108,https://www.mcdonalds.com/gb/en-gb/location/darwen/darwen---j4-m65/j4-m65-blackburn-interchange/8261276.html,24/7,,,4300224283,node,2026-03-06T09:39:44.352340
restaurants,Quay Fish & Chips,fast_food,,"1, Aldcliffe Place, Lancaster, LA1 1SS",LA1 1SS,Lancaster,54.0431319,-2.8034009,,,"Th-Sa 11:30-14:00,16:00-20:00",,,4345705438,node,2026-03-06T09:39:44.352341
restaurants,The Kestrel Kitchen,restaurant,,,,,53.7711294,-2.627404,,,,,,4357240750,node,2026-03-06T09:39:44.352343
restaurants,NYC Steakhouse & Grill,restaurant,,,,,53.759019,-2.6952321,,,,,,4407506897,node,2026-03-06T09:39:44.352345
restaurants,Turtle Bay,restaurant,,"7-10, Cheapside, Preston, PR1 2AP",PR1 2AP,Preston,53.7585703,-2.6990411,,,Mo-Su 10:00-22:00,,,4407506899,node,2026-03-06T09:39:44.352346
restaurants,Poundbakery,fast_food,,"47, Fishergate, Preston, PR1 8BH",PR1 8BH,Preston,53.7575954,-2.7038631,,https://www.poundbakery.co.uk/store/preston/,,,,4475206556,node,2026-03-06T09:39:44.352350
restaurants,Iceburg,fast_food,,"23, Lancaster Road, Preston, PR1 2QY",PR1 2QY,Preston,53.7588227,-2.6980376,,,,,,4475206562,node,2026-03-06T09:39:44.352351
restaurants,Lavin Zeus,fast_food,,"149, Church Street, Preston, PR1 3BU",PR1 3BU,Preston,53.7582593,-2.6978843,+44 1772 555345;+44 1772 200500,,,,,4475206564,node,2026-03-06T09:39:44.352353
restaurants,Akash,restaurant,,"196-200, Duckworth Street, Darwen, BB3 1PX",BB3 1PX,Darwen,53.6982575,-2.4707716,,,,,,4493380792,node,2026-03-06T09:39:44.352355
restaurants,Thira,restaurant,indian,"32, Darwen Street, Blackburn, BB2 2BY",BB2 2BY,Blackburn,53.7466903,-2.4828075,+44 1254 485641,https://www.thira-restaurant.co.uk/,,,,4510881373,node,2026-03-06T09:39:44.352357
restaurants,Sabza,restaurant,indian,"9, High Street, Garstang, PR3 1EA",PR3 1EA,Garstang,53.9009996,-2.7742427,+44 1995 608800,https://sabzaindian.com/info,"Mo-Th,Su 17:00-22:30; Fr-Sa 17:00-23:00",,,4558938483,node,2026-03-06T09:39:44.352358
restaurants,Meiz Japanese Restaurant,restaurant,japanese;sushi,"6, Butler Street, Preston, PR1 8BN",PR1 8BN,Preston,53.7569709,-2.7064292,+44 1772 201321,https://meizjprestaurant.co.uk,Su-Th 12:00-21:00; Fr-Sa 12:00-22:00,,,4560921455,node,2026-03-06T09:39:44.352360
restaurants,Pizza Island,fast_food,burger;american;pizza,"Watford Street, Blackburn, BB1 7LD",BB1 7LD,Blackburn,53.7520046,-2.4829944,,,,,,4580824095,node,2026-03-06T09:39:44.352362
restaurants,Cube Desserts,restaurant,pizza;cake;donut;coffee_shop;ice_cream,"51, Regent Street, Blackburn, BB1 6BH",BB1 6BH,Blackburn,53.7512757,-2.4822921,,,,,,4581156792,node,2026-03-06T09:39:44.352365
restaurants,FINO,restaurant,spanish,"15-16, St Wilfrid Street, Preston, PR1 2US",PR1 2US,Preston,53.7579317,-2.7049582,,http://www.blue-bayou.co.uk,,,,4583232291,node,2026-03-06T09:39:44.352367
restaurants,Railway Road Chippy,fast_food,fish_and_chips,"99, Railway Road, Chorley, PR6 0HN",PR6 0HN,Chorley,53.6580441,-2.6260046,,,,,,4596744350,node,2026-03-06T09:39:44.352370
restaurants,Megabites,fast_food,sandwich,,,,53.8709702,-2.3916863,+44 1200 444133,,,,,4596820225,node,2026-03-06T09:39:44.352372
restaurants,Delishous by Saladishy,restaurant,,"93, Fishergate, Preston, PR1 2NJ",PR1 2NJ,Preston,53.7578266,-2.7036453,+44 1772 822299,https://www.delishus.co,,,,4600170391,node,2026-03-06T09:39:44.352374
restaurants,Greekos,fast_food,greek,,,,53.7577773,-2.7039376,,,,,,4600170393,node,2026-03-06T09:39:44.352375
restaurants,Greggs,fast_food,sandwich;bakery,"91, Fishergate, Preston, PR1 2NJ",PR1 2NJ,Preston,53.7577632,-2.7040202,,https://www.greggs.co.uk/shop-finder?shop-code=3736,,,,4600170394,node,2026-03-06T09:39:44.352377
restaurants,Great Eccleston Fish Bar,fast_food,fish_and_chips,"Preston, PR3 0ZB",PR3 0ZB,Preston,53.8545746,-2.8722959,,,,,,4605525915,node,2026-03-06T09:39:44.352381
restaurants,Jahan,restaurant,indian,"Preston, PR3 0YL",PR3 0YL,Preston,53.8548562,-2.8733339,,,,,,4605525916,node,2026-03-06T09:39:44.352382
restaurants,Tapas 47,restaurant,,"47, King Street, Whalley, BB7 9SP",BB7 9SP,Whalley,53.8208194,-2.4066756,,,,,,4612129794,node,2026-03-06T09:39:44.352384
restaurants,Brown Sugar Lane Ends,fast_food,dessert,,,,53.7709926,-2.7268115,,,,,,4619227693,node,2026-03-06T09:39:44.352386
restaurants,Tulketh Chippy,fast_food,fish_and_chips,"178, Tulketh Brow, Preston, PR2 2JE",PR2 2JE,Preston,53.7694909,-2.7263953,,,,,,4619227712,node,2026-03-06T09:39:44.352387
restaurants,Greekos,fast_food,greek,"8, Market Street, Lancaster, LA1 1HT",LA1 1HT,Lancaster,54.0488091,-2.8003142,,,,,,4625758486,node,2026-03-06T09:39:44.352391
restaurants,Auction Mart Restaurant,restaurant,,"Wyresdale Road, Lancaster, LA1 3JQ",LA1 3JQ,Lancaster,54.0413236,-2.7817787,,,,,,4663749983,node,2026-03-06T09:39:44.352392
restaurants,Brendan's Chippy,fast_food,fish_and_chips,"10, Ridge Square, Lancaster, LA1 3HR",LA1 3HR,Lancaster,54.0553094,-2.7868435,,,,,,4664009849,node,2026-03-06T09:39:44.352394
restaurants,Subway,fast_food,sandwich,"11, Church Street, Lancaster, LA1 1LP",LA1 1LP,Lancaster,54.0493872,-2.7993277,,https://restaurants.subway.com/united-kingdom/en/lancaster/unit-25b-11-church-street-st-nicholas-arcade,,,,4674504210,node,2026-03-06T09:39:44.352396
restaurants,Turtle Bay,restaurant,caribbean,,,,53.7467329,-2.480632,,,,,,4678953311,node,2026-03-06T09:39:44.352397
restaurants,La Locanda,restaurant,italian,"Main Street, Clitheroe, BB7 4HH",BB7 4HH,Clitheroe,53.9353753,-2.2591076,+44 1200 445303,https://www.lalocanda.co.uk/,,,,4691764096,node,2026-03-06T09:39:44.352399
restaurants,Lords Courtyard,restaurant,,"A65, Settle, BD24 9JY",BD24 9JY,Settle,54.0480043,-2.2850714,+44 1729 892900,,,,,4691766790,node,2026-03-06T09:39:44.352401
restaurants,Mi-Mi's,fast_food,,,,,53.7005678,-2.2872122,,,,,,4716542041,node,2026-03-06T09:39:44.352402
restaurants,Akash,fast_food,,"194, Duckworth Street, Darwen, BB3 1PX",BB3 1PX,Darwen,53.6983197,-2.4708445,,,,,,4717813871,node,2026-03-06T09:39:44.352404
restaurants,Seniors Wesham,fast_food,fish_and_chips,"1, Garstang Road, Preston, PR4 3DE",PR4 3DE,Preston,53.78947,-2.8856375,,https://seniorsfishandchips.co.uk/,Mo-Sa 11:30-14:00  16:30-20:00,,,4761965162,node,2026-03-06T09:39:44.352406
restaurants,Kirkham Tandoori,fast_food,indian,"Preston, PR4 2JP",PR4 2JP,Preston,53.7843774,-2.8833076,,,,,,4764285010,node,2026-03-06T09:39:44.352409
restaurants,Fresh Food Corner,fast_food,sandwich,"Preston, PR4 3AD",PR4 3AD,Preston,53.7888017,-2.8846943,,,,,,4764285015,node,2026-03-06T09:39:44.352411
restaurants,New Fiortune House,restaurant,chinese,"Preston, PR4 3BL",PR4 3BL,Preston,53.788419,-2.8856023,,,"We,Th,Su,Mo 17:00-23:00; Fr,Sa 17:00-23:30",,,4764285018,node,2026-03-06T09:39:44.352412
restaurants,Traditional English Fish & Chips,fast_food,,,,,53.7474915,-2.4504269,,,,,,4965227419,node,2026-03-06T09:39:44.352414
restaurants,Pizza King,fast_food,pizza;chicken;kebab;burger,"11, Church Street, Preston, PR1 3BQ",PR1 3BQ,Preston,53.7586435,-2.697222,+44 1772 562256,,,,,5000582907,node,2026-03-06T09:39:44.352416
restaurants,Millon,fast_food,indian,"Preston, PR4 1PD",PR4 1PD,Preston,53.7542712,-2.8644463,,,,,,5017750743,node,2026-03-06T09:39:44.352418
restaurants,Lucky House,fast_food,chinese,"Preston, PR4 1PB",PR4 1PB,Preston,53.7545994,-2.8649546,,,,,,5017750745,node,2026-03-06T09:39:44.352419
restaurants,Pipers,restaurant,european,"46-47, High Street, PR3 1EA",PR3 1EA,,53.9015962,-2.7741221,+44 1995 606665,https://www.pipersrestaurant.co.uk/,Mo-Tu off; We-Th 11:00-21:00; Fr-Sa 11:00-21:30; Su 11:00-19:00,,,5023011574,node,2026-03-06T09:39:44.352421
restaurants,Curry Palace,fast_food,,"8, Grimshaw Street, Preston, PR1 3DD",PR1 3DD,Preston,53.7594783,-2.6933285,,,,,,5023054808,node,2026-03-06T09:39:44.352423
restaurants,Pizzeria Capri,fast_food,pizza;salad,"100, Dale Street, OL16 4HX",OL16 4HX,,53.6087431,-2.1085923,+44 1706 524600,https://pizzeriacaprionline.co.uk,"Mo,Tu 16:00-22:50; We-Sa 16:00-23:00",,,5085687776,node,2026-03-06T09:39:44.352425
restaurants,Players,fast_food,,"11, Oldham Road, OL16 1UA",OL16 1UA,,53.6146733,-2.1531566,,,,,,5085881073,node,2026-03-06T09:39:44.352429
restaurants,Arizona Fried Chicken,fast_food,chicken,"13-15, Oldham Road, OL16 1UA",OL16 1UA,,53.6146208,-2.1530627,,,,,,5085881075,node,2026-03-06T09:39:44.352434
restaurants,Ashiana,restaurant,indian,"Preston, PR4 3HE",PR4 3HE,Preston,53.8130034,-2.8938997,,,,,,5147935395,node,2026-03-06T09:39:44.352436
restaurants,The Villa Italian,restaurant,italian,"Preston, PR4 3HE",PR4 3HE,Preston,53.8057577,-2.890327,,,,,,5147935396,node,2026-03-06T09:39:44.352437
restaurants,New Element,restaurant,asian,"120, Corporation Street, Preston, PR1 2UQ",PR1 2UQ,Preston,53.760257,-2.7055346,,,,,,5159845036,node,2026-03-06T09:39:44.352439
restaurants,Victoria Chip Shop,fast_food,fish_and_chips,"1, Victoria Street, Preston, PR5 5RA",PR5 5RA,Preston,53.7251723,-2.6902014,,,,,,5161281853,node,2026-03-06T09:39:44.352441
restaurants,Peking Inn,fast_food,chinese,"282, Station Road, Preston, PR5 6EB",PR5 6EB,Preston,53.7253251,-2.6609142,,,We-Mo 17:00-22:30; Tu off,,,5164793473,node,2026-03-06T09:39:44.352443
restaurants,John Dory,fast_food,fish_and_chips,"252, Station Road, Preston, PR5 6EA",PR5 6EA,Preston,53.7262618,-2.6606773,,,"Mo-Sa 11:45-14:00, Mo-Th,Sa 16:45-21:30, Fr 16:45-22:00",,,5164793474,node,2026-03-06T09:39:44.352444
restaurants,Dario's Pizza,fast_food,pizza,"240A, Station Road, Preston, PR5 6EA",PR5 6EA,Preston,53.727089,-2.6606721,,,,,,5164793475,node,2026-03-06T09:39:44.352446
restaurants,Little India,fast_food,indian,"32, Liverpool Road, Preston, PR1 0DQ",PR1 0DQ,Preston,53.750026,-2.7309963,,,,,,5164793508,node,2026-03-06T09:39:44.352448
restaurants,Ristorante Salvatore,restaurant,italian,"61-63, Liverpool Road, Preston, PR1 9XD",PR1 9XD,Preston,53.7495039,-2.732119,,,,,,5164793509,node,2026-03-06T09:39:44.352451
restaurants,Lucky Star,fast_food,chinese,"159, Liverpool Road, Preston, PR4 5FE",PR4 5FE,Preston,53.7320744,-2.7681376,,,,,,5164793513,node,2026-03-06T09:39:44.352452
restaurants,The Lounge Bar and Restaurant,restaurant,,"9, Preston, PR4 5JT",PR4 5JT,Preston,53.7070892,-2.7958352,,,,,,5164793515,node,2026-03-06T09:39:44.352454
restaurants,The Green Frog,fast_food,,"Mariners Way, Preston",,Preston,53.7614294,-2.7403708,,,,,,5169371338,node,2026-03-06T09:39:44.352456
restaurants,McDonald's,fast_food,burger,"Fishergate, Preston, PR1 8HJ",PR1 8HJ,Preston,53.7565885,-2.7057358,+44 1772 556403,https://www.mcdonalds.com/gb/en-gb/location/preston/preston-fishergate/213-fishergate-shopping-centre/8261289.html,,,,5169371348,node,2026-03-06T09:39:44.352458
restaurants,Micks Hut,fast_food,,"21, Corporation Street, Preston, PR1 2UP",PR1 2UP,Preston,53.7578428,-2.7059758,,,,,limited,5169371350,node,2026-03-06T09:39:44.352461
restaurants,Lune Street Fish and Chips,fast_food,fish_and_chips,"34, Lune Street, Preston, PR1 2NN",PR1 2NN,Preston,53.7592101,-2.7031608,,,,,,5169371354,node,2026-03-06T09:39:44.352463
restaurants,Greggs,fast_food,sandwich;bakery,"91, Friargate Walk, Preston, PR1 2NQ",PR1 2NQ,Preston,53.7589518,-2.7013968,,https://www.greggs.co.uk/shop-finder?shop-code=0424,,,,5169371356,node,2026-03-06T09:39:44.352465
restaurants,Burger King,fast_food,burger,"75, Friargate Walk, Preston, PR1 2NQ",PR1 2NQ,Preston,53.7586021,-2.7016538,,https://locations.burgerking.co.uk/preston/st-georges-shopping-centre,,,,5169371376,node,2026-03-06T09:39:44.352466
restaurants,Greggs,fast_food,sandwich;bakery,"60, Fishergate Walk, Preston, PR1 2NR",PR1 2NR,Preston,53.7584112,-2.7017341,,,,,,5169371379,node,2026-03-06T09:39:44.352468
restaurants,Cafe Bar,restaurant,italian,"11b, Winckley Street, Preston, PR1 2AA",PR1 2AA,Preston,53.7571331,-2.70226,,,,,,5169371382,node,2026-03-06T09:39:44.352471
restaurants,Subway,fast_food,sandwich,"7-8, Lancaster Road, Preston, PR1 2QY",PR1 2QY,Preston,53.7585643,-2.6979221,,https://restaurants.subway.com/united-kingdom/en/preston/unit-7/8-miller-arcade-church-street,,,,5169371389,node,2026-03-06T09:39:44.352473
restaurants,Mundo Tapas,restaurant,tapas,"8-12, Lancaster Road, Preston, PR1 1HR",PR1 1HR,Preston,53.7596012,-2.6971973,,,,,,5169371391,node,2026-03-06T09:39:44.352475
restaurants,Tino's,restaurant,italian,"Hill Street, Preston, PR1 2BB",PR1 2BB,Preston,53.760006,-2.7044445,,,,,limited,5169707748,node,2026-03-06T09:39:44.352476
restaurants,Pizza Spaghetti House,fast_food,pizza,"19, Hill Street, Preston, PR1 2BB",PR1 2BB,Preston,53.7602375,-2.703951,,,,,,5169707749,node,2026-03-06T09:39:44.352478
restaurants,Subway,fast_food,sandwich,"73, Fylde Road, Preston, PR1 2XQ",PR1 2XQ,Preston,53.7642014,-2.7100852,,https://restaurants.subway.com/united-kingdom/en/preston/73-fylde-rd,,,yes,5169707756,node,2026-03-06T09:39:44.352480
restaurants,Butty Shop,fast_food,sandwich,"187, Eldon Street, Preston, PR2 2BA",PR2 2BA,Preston,53.7695462,-2.7205291,,,,,,5189379936,node,2026-03-06T09:39:44.352482
restaurants,Burger King,fast_food,burger,,,,53.6006791,-2.5730773,,https://locations.burgerking.co.uk/bolton/rivington-srvc.-station-southbound,,,,5203208551,node,2026-03-06T09:39:44.352485
restaurants,Greggs,fast_food,sandwich;bakery,"M61, Bolton, BL6 5UZ",BL6 5UZ,Bolton,53.6003988,-2.5730546,,https://www.greggs.co.uk/shop-finder?shop-code=3833,,,,5203208956,node,2026-03-06T09:39:44.352487
restaurants,Beck Hall Restaurant,restaurant,,"Skipton, BD23 4DJ",BD23 4DJ,Skipton,54.0635753,-2.153381,,https://www.beckhallmalham.com/,,,,5213951399,node,2026-03-06T09:39:44.352489
restaurants,LA Pizza,fast_food,pizza,"355, Brandlesholme Road, Bury, BL8 1HS",BL8 1HS,Bury,53.6087086,-2.3136083,,,,,,5245335771,node,2026-03-06T09:39:44.352493
restaurants,Brandlesholme Chippy,fast_food,fish_and_chips,"365, Brandlesholme Road, Bury, BL8 1HS",BL8 1HS,Bury,53.6090121,-2.3140592,,,,,,5245335773,node,2026-03-06T09:39:44.352496
restaurants,ChinaXpress,fast_food,chinese,"369, Brandlesholme Road, Bury, BL8 1HS",BL8 1HS,Bury,53.6091405,-2.3142481,,,,,,5245335775,node,2026-03-06T09:39:44.352498
restaurants,Bangla Spice,restaurant,indian,,,,53.7007448,-2.6736509,,,,,,5295714890,node,2026-03-06T09:39:44.352499
restaurants,Jim's Vegetarian Restaurant,restaurant,,"19-21, New Market Street, Colne, BB8 9BJ",BB8 9BJ,Colne,53.8571853,-2.1715897,,,,,,5434697623,node,2026-03-06T09:39:44.352501
restaurants,Full House Noodle Bar,restaurant,noodle,"21, Common Garden Street, Lancaster, LA1 1XD",LA1 1XD,Lancaster,54.0473719,-2.8007944,,,"We-Mo 11:30-16:00, Mo,We-Sa 17:00-21:00, Su 17:00-20:00",,,5464643926,node,2026-03-06T09:39:44.352502
restaurants,Shathi,fast_food,indian,"234, Eaves Lane, Chorley, PR6 0ET",PR6 0ET,Chorley,53.6587077,-2.6187989,,,,,yes,5490954976,node,2026-03-06T09:39:44.352504
restaurants,Wing Sing,fast_food,chinese,"240, Eaves Lane, Chorley, PR6 0ET",PR6 0ET,Chorley,53.6588316,-2.6187666,,,,,,5490954977,node,2026-03-06T09:39:44.352506
restaurants,Los Banditos,restaurant,latin_american,"46-48, Church Street, Lancaster, LA1 1LH",LA1 1LH,Lancaster,54.0497744,-2.8008971,,,"Tu,We 16:00-22:00, Th 16:00-23:00, Fr 16:00-02:00, Sa 12:00-02:00, Su 12:00-22:00; Mo off",,,5497397174,node,2026-03-06T09:39:44.352507
restaurants,The Cornerhouse,restaurant,british;pasta;pizza,"15, New Street, Lancaster, LA1 1EG",LA1 1EG,Lancaster,54.0496224,-2.8017453,+44 1524 845939,https://cornerhouselancaster.co.uk/,,,yes,5501926780,node,2026-03-06T09:39:44.352509
restaurants,Domino's,fast_food,pizza,"Flat Iron Parade, Chorley, PR7 1BY",PR7 1BY,Chorley,53.6538524,-2.6302439,,,,,,5531062108,node,2026-03-06T09:39:44.352513
restaurants,Subway,fast_food,sandwich,"George Street, Chorley, PR7 2BN",PR7 2BN,Chorley,53.6496953,-2.6272586,,https://restaurants.subway.com/united-kingdom/en/chorley/unit-3-chorley-retail-park-george-street,,,,5531080602,node,2026-03-06T09:39:44.352514
restaurants,Gwok Hing,fast_food,chinese,"209, Eaves Lane, Chorley, PR6 0TR",PR6 0TR,Chorley,53.6562654,-2.6192361,,,,,,5531467334,node,2026-03-06T09:39:44.352516
restaurants,Domino's,fast_food,pizza,"Lancaster Way, Chorley, PR7 7LJ",PR7 7LJ,Chorley,53.6759729,-2.6542845,,https://www.dominos.co.uk/pizza-near-me/chorley/unit-3-lancaster-way,,,,5535864909,node,2026-03-06T09:39:44.352518
restaurants,Venice Papas,fast_food,,,,,53.6498781,-2.6306972,,,,,,5545001940,node,2026-03-06T09:39:44.352520
restaurants,Golden Dragon,fast_food,chinese,"13, Bolton Street, Chorley, PR7 3AA",PR7 3AA,Chorley,53.6499814,-2.6308394,,,We-Su 16:30-21:00,,,5545001943,node,2026-03-06T09:39:44.352521
restaurants,Mega Munch,fast_food,kebab;pizza,"56, Chapel Street, Chorley, PR7 1BS",PR7 1BS,Chorley,53.6523478,-2.6281719,,,,,,5554536580,node,2026-03-06T09:39:44.352523
restaurants,The Nile,fast_food,kebab,"3, Flat Iron Parade, Chorley, PR7 1BY",PR7 1BY,Chorley,53.6538635,-2.6301112,,,,,,5558907099,node,2026-03-06T09:39:44.352525
restaurants,Golden Plaice,fast_food,fish_and_chips,"26, High Street, Chorley, PR7 1DW",PR7 1DW,Chorley,53.6536895,-2.6308782,,,,,,5558907104,node,2026-03-06T09:39:44.352526
restaurants,Vujon Indian Dining Room,restaurant,indian,"Cottage Fields, Chorley, PR7 3QG",PR7 3QG,Chorley,53.6388276,-2.6379526,,,,,,5562351559,node,2026-03-06T09:39:44.352528
restaurants,Olive Tree Brasserie,restaurant,,"5-6, Lancaster Road, Preston, PR1 2QY",PR1 2QY,Preston,53.7585332,-2.6981092,,,,,,5605177094,node,2026-03-06T09:39:44.352532
restaurants,Greggs,fast_food,sandwich;bakery,"Owen Road, Lancaster, LA1 2LL",LA1 2LL,Lancaster,54.0581135,-2.801276,,https://www.greggs.co.uk/shop-finder?shop-code=5170,,,,5624476967,node,2026-03-06T09:39:44.352534
restaurants,Spice 360 by Sanah,fast_food,indian,"4a, Chapel Street, Lancaster, LA1 1NZ",LA1 1NZ,Lancaster,54.0506345,-2.7994977,,,,,,5626262866,node,2026-03-06T09:39:44.352536
restaurants,Bowen Pies,fast_food,,"Harpers Lane, Chorley, PR6 0FD",PR6 0FD,Chorley,53.6618261,-2.6194523,,https://www.bowenpies.co.uk/,Mo-Fr 07:00-16:00; Sa 07:00-14:00,,,5648018617,node,2026-03-06T09:39:44.352537
restaurants,House of Steak,restaurant,steak_house,"294, Moor Road, Chorley, PR7 2NG",PR7 2NG,Chorley,53.6394915,-2.6477007,+44 1257 369 833,,Mo-Th 17:00-22:30;Fr 17:00-23:00; Sa 16:00-23:00;Su 12:00-21:30,,,5651529715,node,2026-03-06T09:39:44.352539
restaurants,Greggs,fast_food,sandwich;bakery,"270, Sharoe Green Lane, Preston, PR2 9HD",PR2 9HD,Preston,53.7922487,-2.7065501,,https://www.greggs.co.uk/shop-finder?shop-code=4937,Mo-Sa 06:30-19:00; Su 08:00-18:00,,,5663774572,node,2026-03-06T09:39:44.352541
restaurants,Subway,fast_food,sandwich,"264, Sharoe Green Lane, Preston, PR2 9HD",PR2 9HD,Preston,53.7922558,-2.7063905,+44 1772 712106,https://restaurants.subway.com/united-kingdom/en/preston/264-sharoe-green-lane,Mo-Fr 07:30-22:00; Sa 09:30-21:00; Su 10:30-21:00,,,5663774574,node,2026-03-06T09:39:44.352543
restaurants,Chorley Fried Chicken,fast_food,chicken,,,,53.6518629,-2.6318371,,,,,,5678169189,node,2026-03-06T09:39:44.352545
restaurants,Italiano,fast_food,italian;kebab;pizza,"34, Market Street, Chorley",,Chorley,53.6533874,-2.6326834,+44 1257 233330,https://www.italiano4.com,,,,5689088810,node,2026-03-06T09:39:44.352546
restaurants,Naseeb,fast_food,indian,"24, Runshaw Lane, Chorley, PR7 6AU",PR7 6AU,Chorley,53.6701693,-2.6791164,,,,,,5697460820,node,2026-03-06T09:39:44.352548
restaurants,Filling Station,fast_food,sandwich,"20, Runshaw Lane, Chorley, PR7 6AU",PR7 6AU,Chorley,53.6701883,-2.6789625,+44 1257 277111,,,,,5697461122,node,2026-03-06T09:39:44.352553
restaurants,May's,fast_food,chinese;fish_and_chips,"18, Runshaw Lane, Chorley, PR7 6AU",PR7 6AU,Chorley,53.6701963,-2.6789099,,,,,,5697461123,node,2026-03-06T09:39:44.352554
restaurants,Romana,fast_food,burger;kebab;pizza,"16, Runshaw Lane, Chorley, PR7 6AU",PR7 6AU,Chorley,53.670205,-2.6788434,,,,,,5697461124,node,2026-03-06T09:39:44.352556
restaurants,North Kerb,fast_food,,,,,53.7585802,-2.6978244,,,,,,5703394192,node,2026-03-06T09:39:44.352558
restaurants,Sizzla Grill,fast_food,burger;kebab;pizza,"26, Steeley Lane, Chorley, PR6 0RD",PR6 0RD,Chorley,53.6521522,-2.6253502,,,,,,5720289860,node,2026-03-06T09:39:44.352559
restaurants,Daisy,fast_food,indian,"44, Steeley Lane, Chorley, PR6 0RD",PR6 0RD,Chorley,53.6521205,-2.6245824,+44 1257 262242,http://daisy-takeaway.co.uk/,,,,5720289864,node,2026-03-06T09:39:44.352561
restaurants,McKrisps,fast_food,sandwich,"48, Steeley Lane, Chorley, PR6 0RD",PR6 0RD,Chorley,53.6521149,-2.6244235,,,,,,5720289866,node,2026-03-06T09:39:44.352563
restaurants,Loy Kee,fast_food,chinese,"60, Steeley Lane, Chorley, PR6 0RD",PR6 0RD,Chorley,53.6521236,-2.6238844,,,,,,5720289870,node,2026-03-06T09:39:44.352564
restaurants,On a Roll,fast_food,sandwich,"5, Cowling Brow, Chorley, PR6 0QE",PR6 0QE,Chorley,53.6497207,-2.6168945,,,,,,5758099970,node,2026-03-06T09:39:44.352566
restaurants,3bz,fast_food,pizza,"7, Cowling Brow, Chorley, PR6 0QE",PR6 0QE,Chorley,53.6497048,-2.6168181,,,,,,5758099971,node,2026-03-06T09:39:44.352567
restaurants,Best Turkish Kebabs,fast_food,kebab;pizza,"242, Eaves Lane, Chorley, PR6 0ET",PR6 0ET,Chorley,53.6588718,-2.61877,,,,,,5771829432,node,2026-03-06T09:39:44.352571
restaurants,Kurd Shawarma,fast_food,,"71, Penny Street, Lancaster, LA1 1XF",LA1 1XF,Lancaster,54.0469299,-2.7997161,,,,,,5810015779,node,2026-03-06T09:39:44.352573
restaurants,Golden Jade,fast_food,chinese,"91, King Street, Lancaster, LA1 1RH",LA1 1RH,Lancaster,54.0464155,-2.8008,+44 1524 844966,http://www.goldenjaderestaurant.co.uk/,"Mo 17:00-23:00, We-Su 17:00-23:00",,limited,5810015780,node,2026-03-06T09:39:44.352574
restaurants,Sultan of Lancaster Experience,fast_food,curry,"Caton Road, Lancaster, LA1 3NY",LA1 3NY,Lancaster,54.0577748,-2.7911058,+44 1524 845721,,,,,5884596520,node,2026-03-06T09:39:44.352576
restaurants,The Lounge,restaurant,,,,,54.0122443,-2.784303,,,,,,5905933037,node,2026-03-06T09:39:44.352578
restaurants,Chesters,fast_food,chicken,"8-10, Copy Nook, Blackburn, BB1 3AN",BB1 3AN,Blackburn,53.7485331,-2.46771,+44 1254 260100,,,,,5955647502,node,2026-03-06T09:39:44.352579
restaurants,The Steak Hut,fast_food,,,,,53.7487172,-2.4666194,,,,,,5955647503,node,2026-03-06T09:39:44.352581
restaurants,The Sandwich Shop,fast_food,,,,,53.7487045,-2.4666947,+44 1254 581108,,,,,5955647504,node,2026-03-06T09:39:44.352583
restaurants,Billy Bunters Sandwich Shop,fast_food,,"18, Copy Nook, Blackburn, BB1 3AN",BB1 3AN,Blackburn,53.7485902,-2.4673715,+44 1254 690700,,,,,5955647511,node,2026-03-06T09:39:44.352585
restaurants,Hardeez,fast_food,chicken,"14, Copy Nook, Blackburn, BB1 3AN",BB1 3AN,Blackburn,53.7485648,-2.467522,+44 1254 674099,,,,,5955647513,node,2026-03-06T09:39:44.352586
restaurants,Chaks,fast_food,,,,,53.7485521,-2.4675972,+44 1254 262429,,,,,5955647514,node,2026-03-06T09:39:44.352590
restaurants,Sudell Sandwiches,fast_food,,"1, Preston New Road, Blackburn",,Blackburn,53.7505528,-2.4865637,,,,,,5980058457,node,2026-03-06T09:39:44.352592
restaurants,Kobeda Palace,restaurant,turkish,,,,53.7506043,-2.4859148,,,,,,5980072386,node,2026-03-06T09:39:44.352593
restaurants,Sudell Sandwiches,fast_food,sandwich,"8, Sudell Cross, Blackburn, BB2 1AN",BB2 1AN,Blackburn,53.7507443,-2.4863144,+44 1254 690393,,,,,5980072388,node,2026-03-06T09:39:44.352595
restaurants,La Estrella,restaurant,spanish,"Bolton Street, Chorley",,Chorley,53.6476632,-2.6284251,,,,,,5983667115,node,2026-03-06T09:39:44.352597
restaurants,Greggs,fast_food,sandwich;bakery,"43, Deardengate, Rossendale, BB4 5QN",BB4 5QN,Rossendale,53.7054433,-2.3257934,,https://www.greggs.co.uk/shop-finder?shop-code=0390,,,,6049267170,node,2026-03-06T09:39:44.352598
restaurants,Volare,fast_food,italian;pizza,"458, Blackpool Road, Preston, PR2 1HX",PR2 1HX,Preston,53.7707252,-2.7298225,,,,,,6053036957,node,2026-03-06T09:39:44.352600
restaurants,The New Chui Kwan,fast_food,chinese,"380, Blackpool Road, Preston, PR2 2DS",PR2 2DS,Preston,53.7723159,-2.7216742,,,,,,6053036958,node,2026-03-06T09:39:44.352602
restaurants,Tuck Inn,fast_food,sandwich,"39, Harpers Lane, Chorley, PR6 7AB",PR6 7AB,Chorley,53.6612916,-2.6257662,,,,,,6063680214,node,2026-03-06T09:39:44.352605
restaurants,Lee's Chinese Takeaway,fast_food,chinese,"33, Harpers Lane, Chorley, PR6 7AB",PR6 7AB,Chorley,53.661299,-2.6259728,+44 1257 232375,,Tu-Su 16:30-22:00,,,6063680222,node,2026-03-06T09:39:44.352607
restaurants,J-Seas,fast_food,fish_and_chips,"29, Harpers Lane, Chorley, PR6 7AB",PR6 7AB,Chorley,53.6612855,-2.6261257,+44 7598 524744,https://www.facebook.com/chorleyfood/,Tu-Sa 11:30-19:30,,yes,6063680227,node,2026-03-06T09:39:44.352614
restaurants,Italian Cottage,restaurant,italian,"12, Cheapside, Chorley, PR7 2EX",PR7 2EX,Chorley,53.6502406,-2.6322207,,https://www.italiancottagerestaurant.com/,,,,6068566989,node,2026-03-06T09:39:44.352615
restaurants,Godfather,fast_food,pizza,"110, Market Street, Chorley, PR7 2SL",PR7 2SL,Chorley,53.6508479,-2.6318116,+44 1257 261818,,,,,6068567016,node,2026-03-06T09:39:44.352617
restaurants,Pizza Hut Delivery,fast_food,pizza,"98-102, Market Street, Chorley, PR7 2SL",PR7 2SL,Chorley,53.6510077,-2.6318894,+44 1257 272020,https://www.pizzahut.co.uk/huts/uk-1/8180-chorley/,Mo-Th 15:00-22:45; Fr-Su 12:00-22:45,,yes,6068567079,node,2026-03-06T09:39:44.352619
restaurants,Roast,fast_food,chicken,"10, Ashton Walk, Lancaster, LA1 1ND",LA1 1ND,Lancaster,54.0491673,-2.7993392,,,,,,6095265737,node,2026-03-06T09:39:44.352621
restaurants,Santa's,fast_food,pizza;burger;kebab,"98, Bolton Road, Blackburn, BB2 3PZ",BB2 3PZ,Blackburn,53.7393715,-2.486508,+44 1254 667777,http://www.santaspizza.co.uk/,,,,6113412846,node,2026-03-06T09:39:44.352622
restaurants,Bowens pies,fast_food,,,,,53.6533612,-2.632391,,,,,,6118640205,node,2026-03-06T09:39:44.352624
restaurants,Fives,restaurant,steak_house,"49-51, Guildhall Street, Preston, PR1 3NU",PR1 3NU,Preston,53.7572477,-2.7001329,+44 1772 201 500,http://www.fives.co.uk/,,,,6170263346,node,2026-03-06T09:39:44.352626
restaurants,A Mano,restaurant,italian,"38-42, Guildhall Street, Preston, PR1 3NU",PR1 3NU,Preston,53.7573238,-2.7005526,,,,,,6170263349,node,2026-03-06T09:39:44.352627
restaurants,Gordale Refreshments,fast_food,,"Hawthorns Lane, Skipton, BD23 4DL",BD23 4DL,Skipton,54.0668857,-2.1351633,,,,,,6174857968,node,2026-03-06T09:39:44.352629
restaurants,Greggs,fast_food,sandwich;bakery,"Matrix Way, Chorley, PR7 7ND",PR7 7ND,Chorley,53.6868302,-2.6679746,,https://www.greggs.com/shops/lancashire/matrix-point/3883,,,,6205584155,node,2026-03-06T09:39:44.352632
restaurants,Pizza Roma,fast_food,pizza,"1B, Victoria Terrace, Preston, PR5 5RX",PR5 5RX,Preston,53.7263405,-2.6931759,,,,,,6207526901,node,2026-03-06T09:39:44.352634
restaurants,Subway,fast_food,sandwich,,,,53.8636259,-2.3952571,,https://restaurants.subway.com/united-kingdom/en/clitheroe/primrose-garage-whalley-road,,,,6216442745,node,2026-03-06T09:39:44.352636
restaurants,Sunflower,fast_food,chinese,"11, Watkin Lane, Preston, PR5 5RE",PR5 5RE,Preston,53.7265223,-2.6927883,,,,,,6219231093,node,2026-03-06T09:39:44.352637
restaurants,Lostock Hall Kebab House,fast_food,kebab,"12, Hope Terrace, Preston, PR5 5RU",PR5 5RU,Preston,53.7261438,-2.6929653,,,,,,6219350232,node,2026-03-06T09:39:44.352639
restaurants,The Radohny,fast_food,indian,"2, Hope Terrace, Preston, PR5 5RU",PR5 5RU,Preston,53.7257289,-2.6926945,,,,,,6219557993,node,2026-03-06T09:39:44.352640
restaurants,FRY INN,fast_food,fish_and_chips,"18, Watkin Lane, Preston, PR5 5RD",PR5 5RD,Preston,53.725778,-2.6914305,,,,,,6219615754,node,2026-03-06T09:39:44.352642
restaurants,Ariel Chinese Take Away,fast_food,chinese,"72, Pall Mall, Chorley, PR7 2LE",PR7 2LE,Chorley,53.6485069,-2.6332862,,,,,,6229206313,node,2026-03-06T09:39:44.352644
restaurants,Romeo's,fast_food,burger;kebab;pizza,"78, Pall Mall, Chorley, PR7 2LE",PR7 2LE,Chorley,53.6482962,-2.6335175,,,,,,6229622205,node,2026-03-06T09:39:44.352645
restaurants,Scrumptious,fast_food,kebab;pizza;burger,"57, Scotforth Road, Lancaster, LA1 4SA",LA1 4SA,Lancaster,54.0322683,-2.7940897,+44 1524 874580,,"Mo-Th, Su 16:00-23:00; Fr-Sa 16:00-00:00",,limited,6229947400,node,2026-03-06T09:39:44.352647
restaurants,Browns Fish & Chips,fast_food,fish_and_chips,"33, Parker Street, Chorley, PR7 1ES",PR7 1ES,Chorley,53.6581819,-2.630885,,,,,,6256212321,node,2026-03-06T09:39:44.352650
restaurants,The Queen Vic,fast_food,fish_and_chips,"139A, Carr Lane, Chorley, PR7 3JQ",PR7 3JQ,Chorley,53.6402645,-2.6222818,,,,,yes,6269635671,node,2026-03-06T09:39:44.352652
restaurants,Charlie's Chips,fast_food,fish_and_chips,"8, Market Place, Chorley, PR7 1DA",PR7 1DA,Chorley,53.6529519,-2.6308491,,,,,yes,6281185294,node,2026-03-06T09:39:44.352654
restaurants,Burger King,fast_food,burger,"8, Market Street, Morecambe, LA4 5DN",LA4 5DN,Morecambe,54.0720414,-2.8664666,,https://locations.burgerking.co.uk/morecambe/arndale-shopping-centre,,,,6331955439,node,2026-03-06T09:39:44.352656
restaurants,Tayeba,fast_food,indian,"3, Moor Road, Chorley, PR7 2LW",PR7 2LW,Chorley,53.643439,-2.6375248,,,,,,6335674222,node,2026-03-06T09:39:44.352657
restaurants,Chorley Masala,fast_food,indian,"236, Pall Mall, Chorley, PR7 2LH",PR7 2LH,Chorley,53.6442419,-2.6371962,,,Mo-Th 17:00-23:00;Fr-Su 17:00-23:30,,,6338377464,node,2026-03-06T09:39:44.352659
restaurants,CJ's Sandwich Shop,fast_food,sandwich,,,,53.8730394,-2.3908803,,,,,,6347501163,node,2026-03-06T09:39:44.352661
restaurants,Fredy's,fast_food,,"393, Blackpool Road, Preston, PR2 2DU",PR2 2DU,Preston,53.7714581,-2.7243355,,,,,,6384461382,node,2026-03-06T09:39:44.352664
restaurants,Lucky Star,fast_food,chinese,"120, Pall Mall, Chorley, PR7 2LB",PR7 2LB,Chorley,53.6471038,-2.6345448,,,"Mo,Tu,Th,Fr,Sa,Su 16:30-23:00",,,6387466080,node,2026-03-06T09:39:44.352666
restaurants,Nobletts Fish & Chips,fast_food,fish_and_chips,"333, Plungington Road, Preston, PR2 3PS",PR2 3PS,Preston,53.7765069,-2.7157021,,,,,,6397239239,node,2026-03-06T09:39:44.352667
restaurants,The West End Fish Bar,fast_food,fish_and_chips,"338, Blackpool Road, Preston, PR2 3AA",PR2 3AA,Preston,53.7739061,-2.713259,,,,,,6397239261,node,2026-03-06T09:39:44.352670
restaurants,McDonald's,fast_food,burger,"Pittman Way, Preston, PR2 9NP",PR2 9NP,Preston,53.7912139,-2.6853359,+44 1772 793697,https://www.mcdonalds.com/gb/en-gb/location/preston/asda-fulwood/pittman-way/8261314.html,Mo 07:00-22:00; Tu 07:00-04:59; We-Fr 00:00-24:00; Sa 05:00-22:00; Su 10:00-16:30,,,6433628489,node,2026-03-06T09:39:44.352672
restaurants,Bamboo,restaurant,chinese,"25, Plungington Road, Preston, PR1 7EP",PR1 7EP,Preston,53.7684268,-2.7104348,,,,,,6434321108,node,2026-03-06T09:39:44.352674
restaurants,Pizza Hut Delivery,fast_food,pizza,"36, Plungington Road, Preston, PR1 7RB",PR1 7RB,Preston,53.7687233,-2.7103168,+44 1772 378787,https://www.pizzahut.co.uk/huts/uk-1/8051-preston-north/,Mo-Th 12:00-22:30; Fr-Su 12:00-23:00,,,6434321112,node,2026-03-06T09:39:44.352675
restaurants,Tai Hing,restaurant,chinese,"39, Plungington Road, Preston, PR1 7EP",PR1 7EP,Preston,53.7687344,-2.7105796,+44 1772 562347,,,,,6434321117,node,2026-03-06T09:39:44.352677
restaurants,Turkish Kebab,fast_food,kebab,"41, Plungington Road, Preston, PR1 7EP",PR1 7EP,Preston,53.7688121,-2.7106333,+44 1772 378920,,,,,6434321120,node,2026-03-06T09:39:44.352679
restaurants,Roasta,fast_food,,"43, Plungington Road, Preston, PR1 7EP",PR1 7EP,Preston,53.7689421,-2.7107003,,,,,,6434321121,node,2026-03-06T09:39:44.352680
restaurants,Toni's,fast_food,italian,"51, Plungington Road, Preston, PR1 7EP",PR1 7EP,Preston,53.7690863,-2.7107835,,,,,,6434321125,node,2026-03-06T09:39:44.352682
restaurants,King Kod,fast_food,fish_and_chips,"48, Plungington Road, Preston, PR1 7RB",PR1 7RB,Preston,53.7690308,-2.7105287,,,,,,6434321126,node,2026-03-06T09:39:44.352683
restaurants,Sandwich Stop,fast_food,sandwich,"56-58, Plungington Road, Preston, PR1 7RA",PR1 7RA,Preston,53.7692972,-2.7106896,,https://www.sandwichstop.net,,,,6434321132,node,2026-03-06T09:39:44.352685
restaurants,Mom's Sandwich Bar,fast_food,sandwich,"60, Plungington Road, Preston, PR1 7RA",PR1 7RA,Preston,53.7694299,-2.7107848,+44 1772 316116,,,,,6434321135,node,2026-03-06T09:39:44.352688
restaurants,Tasty,fast_food,chinese,"76, Plungington Road, Preston, PR1 7RA",PR1 7RA,Preston,53.7699198,-2.7110373,+44 1772 558288,,,,,6434321152,node,2026-03-06T09:39:44.352690
restaurants,RK Dining,restaurant,indian,"75-77, Plungington Road, Preston, PR1 7EN",PR1 7EN,Preston,53.7699363,-2.7113145,+44 1772 200525,,,,,6434321153,node,2026-03-06T09:39:44.352692
restaurants,LHK Oriental Restaurant,restaurant,chinese,"Briers Brow, Chorley, PR6 8HD",PR6 8HD,Chorley,53.6854915,-2.6007517,,,,,,6440250877,node,2026-03-06T09:39:44.352694
restaurants,KFC,fast_food,chicken,"Chorley, PR7 7NH",PR7 7NH,Chorley,53.6768165,-2.657463,,https://www.kfc.co.uk/kfc-near-me/buckshaw-village-munro-way,,,,6446496585,node,2026-03-06T09:39:44.352695
restaurants,Stonebridge Fish & Chips,fast_food,fish_and_chips,"112, Derby Road, Preston, PR3 3FE",PR3 3FE,Preston,53.8289897,-2.6079354,,,,,,6462910540,node,2026-03-06T09:39:44.352697
restaurants,Tiggis Xpress,restaurant,italian,"3, Barnes Wallis Way, Chorley, PR7 7JA",PR7 7JA,Chorley,53.675729,-2.6589315,+44 1772 623 478,https://www.tiggisxpress.co.uk/,Mo-Th 16:00-22:30; Fr-Su 12:00-22:30,,yes,6464614255,node,2026-03-06T09:39:44.352699
restaurants,Subway,fast_food,sandwich,"5, Barnes Wallis Way, Chorley, PR7 7JA",PR7 7JA,Chorley,53.6756805,-2.6589677,,https://restaurants.subway.com/united-kingdom/en/chorley/3-barnes-wallis-way-buckshaw-village,,,yes,6464614256,node,2026-03-06T09:39:44.352700
restaurants,Nana Jans,fast_food,fish_and_chips,"7, Barnes Wallis Way, Chorley, PR7 7JA",PR7 7JA,Chorley,53.6756257,-2.6590066,+44 1772 378440,https://www.nanajans.co.uk/,,,,6464614257,node,2026-03-06T09:39:44.352702
restaurants,German Doner Kebab,fast_food,kebab,"112, Penny Street, Lancaster, LA1 1XT",LA1 1XT,Lancaster,54.0453748,-2.7999963,+44 1524 383890,https://www.germandonerkebab.com/,Mo-Su 11:00-23:00,,,6510091487,node,2026-03-06T09:39:44.352704
restaurants,The Village Store,fast_food,sandwich,"138, Chorley Old Road, Chorley, PR6 7LR",PR6 7LR,Chorley,53.6914025,-2.635029,,,,,,6515581961,node,2026-03-06T09:39:44.352707
restaurants,Subway,fast_food,sandwich,"Blackburn, BB1 1EY",BB1 1EY,Blackburn,53.746726,-2.4793709,,https://restaurants.subway.com/united-kingdom/en/blackburn/railway-road,,,,6516099087,node,2026-03-06T09:39:44.352709
restaurants,Golden Chopsticks,restaurant,fish_and_chips;chinese,"Leeds Road, Nelson, BB9 8RP",BB9 8RP,Nelson,53.8441358,-2.2004016,,,,,,6516770095,node,2026-03-06T09:39:44.352710
restaurants,Toronto Fried Chicken,fast_food,,"2, Drake Street, Rochdale, OL16 1LU",OL16 1LU,Rochdale,53.6167686,-2.1567619,,,,,,6540413650,node,2026-03-06T09:39:44.352712
restaurants,Subway,fast_food,sandwich,"2, Baillie Street, OL16 1JG",OL16 1JG,,53.6175259,-2.1580977,,https://restaurants.subway.com/united-kingdom/en/rochdale/2-4-baillie-street,,,,6540413653,node,2026-03-06T09:39:44.352714
restaurants,Greggs,fast_food,sandwich;bakery,"64, Market Way, OL16 1EA",OL16 1EA,,53.6181381,-2.1580346,,https://www.greggs.co.uk/shop-finder?shop-code=1853,,,,6540413665,node,2026-03-06T09:39:44.352718
restaurants,Dixy Chicken,fast_food,chicken,"2-4, Reed Hill, OL16 1DF",OL16 1DF,,53.6189232,-2.1568907,,,,,,6540423287,node,2026-03-06T09:39:44.352719
restaurants,Tasty Wok,restaurant,chinese,"48, Market Street, Lancaster, LA1 1HS",LA1 1HS,Lancaster,54.0487817,-2.8026615,,https://www.tastywoklancaster.co.uk/,Tu-Su 11:30-22:30,,,6561042874,node,2026-03-06T09:39:44.352721
restaurants,Anatolia,restaurant,turkish,"46, Market Street, Lancaster, LA1 1HS",LA1 1HS,Lancaster,54.048784,-2.802571,,,,,,6561042875,node,2026-03-06T09:39:44.352723
restaurants,Sunflower,fast_food,fish_and_chips;chinese,,,,53.6931952,-2.5561116,,,,,,6563226801,node,2026-03-06T09:39:44.352725
restaurants,Upper Crust,fast_food,sandwich,,,,53.7555647,-2.7072349,,,,,,6587015341,node,2026-03-06T09:39:44.352730
restaurants,Greggs,fast_food,sandwich;bakery,"Coronation Way, Preston, PR4 3JZ",PR4 3JZ,Preston,53.7958964,-2.8903391,,https://www.greggs.co.uk/shop-finder?shop-code=3800,Mo-Sa 06:00-18:00; Su 07:00-17:00,,,6587368620,node,2026-03-06T09:39:44.352731
restaurants,The Village Bite,fast_food,kebab;pizza,"78, Tunley Holme, Preston, PR5 8ES",PR5 8ES,Preston,53.7123171,-2.6373048,,,,,,6588754896,node,2026-03-06T09:39:44.352733
restaurants,The Brook Chippy,fast_food,fish_and_chips,"76, Tunley Holme, Preston, PR5 8ES",PR5 8ES,Preston,53.712179,-2.6370017,,,,,,6588754899,node,2026-03-06T09:39:44.352735
restaurants,China Box,fast_food,chinese,"75, Tunley Holme, Preston, PR5 8ES",PR5 8ES,Preston,53.7121563,-2.6369628,,,,,,6588754907,node,2026-03-06T09:39:44.352736
restaurants,China Star,fast_food,chinese;fish_and_chips,"14, Cowling Brow, Chorley, PR6 0QF",PR6 0QF,Chorley,53.6491301,-2.6160362,,,,,,6635155894,node,2026-03-06T09:39:44.352738
restaurants,Massala Indian Takeaway,fast_food,indian,"28, Eaves Lane, Chorley, PR6 0PY",PR6 0PY,Chorley,53.6505037,-2.6173009,,,,,,6635620663,node,2026-03-06T09:39:44.352740
